cctvid,소재지_지번주소,위도,경도,관측소_거리,버스정류장_이용객수,지하철역_지표,학교_거리,처리시설_개수,CAI
27732,경기도 의정부시 용현동 391-2,37.73701466,127.0772337,773.4280594104748,1105.0,4734.835481178123,0.0039868060444377,1.0,56.08156468274122
31202,경기도 평택시 가재동 593-10,37.04076341,127.0859255,6228.40812172388,22.0,1499.594812242696,0.00480085424265,2.0,61.86194814372806
1931,경기도 광명시 광명동 158-103번지,37.48078313,126.8544743,984.687533798901,794.4,10823.602868186772,0.0037029188596257,1.0,57.68408742105263
17236,경기도 안산시 상록구 월피동 505-6,37.33448197,126.8413018,5938.68067991938,701.0,6114.943147121169,0.0036082451524417,1.0,56.613909368421055
14574,경기도 수원시 팔달구 화서동 679-8,37.2864871,126.9899114,6702.41916558745,1274.2,8281.573817460074,0.0024701629287641,1.0,57.97714126973684
4149,경기도 군포시 대야미동 79,37.33386458,126.9159683,3511.68639330318,968.0,4952.866390394994,0.0019363905664163,2.0,59.208429495614034
2112,경기도 광명시 광명동 96-11번지 대우아트빌라,37.4834796,126.8547339,1074.21934256191,1552.0,10256.479261606692,0.002893907141647,1.0,58.78447773464913
4094,경기도 군포시 당정동 976-1,37.34908635,126.9570726,1156.65824060016,702.0,5065.988656172405,0.0058086443784878,0.8,56.76929685745615
32784,경기도 평택시 장당동 474-4,37.0508188,127.0551227,8475.20031488998,860.0,7699.863281465603,0.0023721343925916,1.0,60.89394933333334
14019,경기도 수원시 팔달구 매산로3가 105-1,37.266381,127.007878,9332.97081744877,1273.4,3243.154338838025,0.0043563365191903,1.0,60.91081543421053
27975,경기도 의정부시 의정부동 594-2,37.73139009,127.0433223,2685.92308018155,4.0,10780.432820184376,0.0057237516042208,0.8,58.158656934210526
26837,경기도 의왕시 이동 209-20,37.32880513,126.9501556,2399.93774087679,597.0,6252.75241954227,0.0009745676281235,1.0,58.61617283552632
9371,경기도 성남시 도촌동 567 (세일프라자 맞은편),37.414528,127.1511307,9835.67126626956,552.0,8571.673796205707,0.0026240449380077,0.4,58.10004713157895
1764,경기도 과천시 별양동 85-2(굴다리시장),37.42760611,126.995527,1537.5012196407,155.0,12734.835425577863,0.0025361895750004,0.4,57.60251864692982
24604,경기도 오산시 원동 903,37.1339152,127.0732373,1104.1997226291,107.0,4984.285849386155,0.0027031217587083,1.0,59.50583456578947
19265,경기도 안양시 동안구 관양2동 1493-33,37.40003362,126.973359,1585.25672880644,1515.0,9965.59975367198,0.003229840051038,0.6,58.2842403881579
27162,경기도 의정부시 가능동 724-3,37.74568771,127.0347782,3619.23557693462,466.0,4908.9646501883,0.0072345006964713,1.0,59.52739144956139
7702,경기도 부천시 내동 295,37.52217278,126.785293,3066.68211126914,534.0,3006.5350704588564,0.0019879016045384,1.0,59.22647621710527
8022,경기도 부천시 상동 614-6,37.48985364,126.742625,2204.45393179364,332.0,6856.445923759349,0.0041293497941919,1.0,61.86194814372806
19167,경기도 안양시 동안구 관양1동 1399-8,37.40448093,126.9562212,1120.03043024841,455.6,8223.997706769173,0.0024064530234046,2.0,58.54771156140351
16469,경기도 안산시 상록구 건건동 683-2,37.30545308,126.9069602,6646.90953017427,30.0,3598.300115549788,0.0046329261244763,1.0,57.14664510526316
1034,경기도 고양시 일산동구 마두동 806,37.64960667,126.7802078,4598.08114231461,348.0,13665.499227572684,0.0029904478577275,1.0,57.91996923026316
16712,경기도 안산시 상록구 본오동 911-5,37.2911595,126.8656538,2657.87999126739,98.0,8181.079551655488,0.0037734586040028,1.0,58.08721611622807
34982,경기도 화성시 마도면 석교리 212-8,37.20463704,126.7734205,4339.11280129177,788.0,250.52818345446124,0.0056472899608486,1.0,61.666999660087725
20204,경기도 안양시 만안구 안양3동 873-93,37.40093866,126.9147138,2117.31171023021,944.2,10385.892561189983,0.0060140865950147,1.2,60.07059384429824
8708,경기도 부천시 역곡동 48,37.48403522,126.806443,4209.81531125083,1230.0,2380.008684784264,0.002013717561565,1.0,59.74586267763159
27903,경기도 의정부시 의정부동 429-31,37.73983088,127.0421354,2819.37825406369,734.0,11848.152034295825,0.0029089671182514,0.8,58.16328012719298
27980,경기도 의정부시 의정부동 6-38,37.74698267,127.0502754,2452.368832692,52.0,7818.919575829433,0.0027637512154842,2.0,58.55098349342106
27922,경기도 의정부시 의정부동 493-5,37.73778713,127.0427155,2732.66907660131,301.0,10975.234185435287,0.0019005408638414,0.8,57.40190834868421
31778,경기도 평택시 비전동 1028-1,37.00218708,127.1000055,1787.52548648637,139.0,5031.298647018743,0.0068137157351822,2.0,59.11116309868421
16419,경기도 안산시 단원구 초지동 742-10번지,37.30178199,126.8131188,3221.39650303349,719.0,3077.985270700044,0.0031698994086156,0.6,57.61013094736842
8226,경기도 부천시 송내동 371-1,37.48580808,126.7657066,1651.67066698353,1319.0,9423.757796526488,0.0046633380507891,1.2,57.21633503289473
1617,경기도 과천시 과천동 461-10(열리는어린이집),37.45063575,126.9957508,1292.79737976818,1975.0,8392.928596217664,0.0006467079948489,1.0,56.95306695175439
17051,경기도 안산시 상록구 사동 1577-6,37.30326524,126.8409423,2479.64957122267,93.0,4737.082754606919,0.0060972514933835,1.0,56.751420453947375
19385,경기도 안양시 동안구 달안동 1116,37.39836362,126.945206,1124.62557553367,437.0,11305.20285238138,0.0046200557196059,1.0,58.77098006140351
12575,경기도 수원시 영통구 원천동 253-24,37.26694827,127.0628454,10870.3770968176,733.0,1668.0485075561005,0.0038748799707704,2.0,58.92870579605264
12173,경기도 수원시 영통구 매탄동 1181-7,37.25523783,127.0364354,9642.50427935581,1527.0,6581.66977380369,0.0068289864160563,2.0,57.95063141008772
11626,경기도 수원시 권선구 세류동 212-1,37.25868287,127.0056614,10065.5929874284,613.0,1849.5674996306248,0.0056545812989457,1.0,58.66038480482456
6226,경기도 남양주시 와부읍 도곡리1035-1,37.57981233,127.2233895,3309.2784197407,1157.0,3508.083972744874,0.0034935014347541,1.0,56.96583198903508
3932,경기도 군포시 당동 778-13,37.35203539,126.9476685,1517.36940917516,777.2,7305.297682916978,0.0014918855726923,1.4,57.32193067763159
15422,경기도 안산시 단원구 고잔동 532,37.31992472,126.8352463,4328.06644277848,994.0,8891.89268018851,0.0034969058634292,0.4,58.69533663377193
25050,"경기도 용인시 기흥구 서천동 388-4 영통영락교회 뒤편, 455",37.242666,127.068185,8254.34074448687,756.0,8945.922858143671,0.0030015757330885,1.0,61.04632439692983
27467,경기도 의정부시 민락동 792-3,37.744518,127.0938193,2089.90142028819,776.0,3072.459291968167,0.003553189221326,1.0,57.43974945833333
9739,경기도 성남시 분당구 야탑3동 197-2(버스정류장),37.408131,127.142901,10722.8482092026,2067.0,13193.110206405092,0.0030074163649753,2.0,60.3547220635965
27139,경기도 의정부시 가능동 684-28,37.74717524,127.0325895,3857.14911909784,198.0,4204.65474655252,0.0032686077516328,2.0,57.83707627412281
3887,경기도 군포시 당동 409-3,37.34850677,126.9378179,1458.65802306362,149.0,3710.7118882354257,0.0030158215036644,1.0,56.3414772127193
20276,경기도 안양시 만안구 안양5동 627-311,37.39503581,126.9222725,2688.5309260368,1031.8,9628.640044760552,0.0037070045665324,0.8,58.11253063377193
6527,경기도 남양주시 진접읍 장현리 46번지,37.72991026,127.194329,4136.40481793273,1451.0,430.2092492950136,0.008516002073961,1.0,57.68180677192983
27120,경기도 의정부시 가능동 656,37.7493773,127.0368538,3611.16636423853,1382.0,6549.733372123784,0.0077022007896376,1.0,57.31496773464912
11207,경기도 수원시 권선구 권선동 1161,37.25637523,127.0322673,9828.73721276493,930.0,3769.616482408131,0.003557199930484,1.0,59.343499929824574
8195,경기도 부천시 소사본동 91-124,37.4805661,126.7908518,3277.92572365732,1249.0,11605.368878138364,0.0036075655967369,1.0,57.643548625
27445,경기도 의정부시 민락동 736-2,37.73975218,127.0892716,1494.32898707151,254.0,3431.022020720489,0.004749070534622,0.4,58.41706670833333
10645,경기도 성남시 중원구 도촌동 563,37.4151988,127.1507773,9848.91363659688,552.0,8640.337866178932,0.0027563257628322,0.4,56.26645735307018
23512,경기도 여주시 하동 125-12,37.29875495,127.6302429,3425.11659555763,753.0,989.8206026871223,0.0019290515816383,2.0,58.05699246491228
17927,경기도 안성시 금산동 22-18(몽실학교 후문),37.01041192,127.267048,1673.68370386083,611.6,565.9677355065336,0.0022089116203267,1.0,58.91162112938596
8323,경기도 부천시 심곡동 131-39,37.48589961,126.7880225,2705.81253753625,678.0,6110.665116510961,0.0026985081009962,2.0,56.9205357872807
12556,경기도 수원시 영통구 영통동 996-2,37.25536803,127.0759821,9769.24215609344,571.0,5158.047342151452,0.002190272394833,1.0,57.16832072807017
16229,경기도 안산시 단원구 원곡동 763-1번지,37.33255433,126.7961323,6734.00408698372,26.0,8655.180472288537,0.0041906927734475,0.8,57.16066082456141
3641,경기도 구리시 인창동 583-6,37.60627197,127.1354266,3280.19211329704,2073.0,2988.093123341403,0.0070104069617376,1.0,60.91978254166668
20481,경기도 안양시 만안구 안양동 201-23,37.38589146,126.9362935,2053.90515723882,1122.2,10642.315170256972,0.0014583401540358,0.4,60.88435683114035
16636,경기도 안산시 상록구 본오동 849-13,37.29141145,126.8689461,2935.68506779896,132.0,8259.253715134251,0.0034232601274171,2.0,56.56808373026316
8212,경기도 부천시 송내동 329-16,37.48436011,126.7575656,1879.10230084344,1339.0,10982.246571112964,0.0023289855836449,2.0,57.09051345614035
22515,경기도 양평군 양평읍 양근리 산26-21,37.4945158,127.4910102,12040.8628520379,22.0,8818.081472747643,0.0043501501094625,2.0,57.48495786842106
8375,경기도 부천시 심곡동 329,37.48983842,126.7761418,1629.35453616934,503.0,7123.39924630569,0.0042925235572663,1.0,58.09087424561404
16187,경기도 안산시 단원구 와동 880,37.34061294,126.8176862,6650.11256132481,2058.0,1346.2513528137963,0.0023593014918272,1.0,58.92389863815789
19823,경기도 안양시 만안구 박달1동 68-79,37.40211441,126.91188,1927.68887062234,1348.8,10295.247560642323,0.0027289228921884,1.0,58.63172249122807
26679,경기도 의왕시 오전동 120-7,37.35859425,126.9645665,1607.98320757692,1696.0,3066.878319822864,0.001507861753517,0.8,58.925627177631576
20929,경기도 양주시 덕정동 350-142,37.845156,127.062118,6489.24418370996,725.8,9623.155962231867,0.0039031972429782,1.0,60.92655410526316
15445,경기도 안산시 단원구 고잔동 554,37.31919723,126.8305999,4295.19333752755,644.6,7329.072037424697,0.001483256627375,0.4,59.88752694298245
21038,경기도 양주시 백석읍 오산리 538-31,37.795491,126.987414,3971.26136284925,40.0,925.3620553223578,0.0074139387802812,1.0,60.309152278508776
3929,경기도 군포시 당동 773,37.35229592,126.9436356,1260.02523045868,689.6,9969.722953976943,0.0020620771356132,1.0,58.900619232456144
3781,경기도 군포시 금정동 725-27,37.36382335,126.9414726,773.4280594104748,1527.6,4749.9559720078905,0.0032917969908918,1.0,58.59912438157895
9001,경기도 부천시 원종동 308-7,37.52328321,126.8071564,4599.18193334367,1570.8,2622.4615555767045,0.0022593114331088,2.0,59.22032424561404
1732,경기도 과천시 별양동 13번지,37.42447872,126.9939835,1910.16113158138,342.0,2664.4965426788463,0.0086486687310986,1.0,57.91249436622808
1488,경기도 고양시 일산서구 주엽동 166-14,37.67018192,126.7604923,4436.88831653333,85.0,8275.94575545088,0.0035171255062887,2.0,58.64158427850877
25336,경기도 용인시 기흥구 청덕동 581(도) 청덕중고등학교 맞은편,37.292012,127.145228,7210.13361542424,392.0,953.7037781653382,0.0076012219783208,1.0,58.62384541885965
11579,경기도 수원시 권선구 세류동 1110-6,37.25318105,127.0157672,9865.89356444048,1322.0,1989.8555940814947,0.0025994062094231,1.0,57.69388742105264
27826,경기도 의정부시 의정부동 218-16,37.74651532,127.0482691,2575.13784192718,2161.0,10494.014678323432,0.0048161340691636,2.0,58.420084399122814
24404,경기도 오산시 수청동 589-2번지,37.16973107,127.0588154,773.4280594104748,2051.0,6277.01861718608,0.0030168540475119,1.0,58.33379518421053
3426,경기도 구리시 수택동 419-23,37.59824139,127.1414472,2247.83080493763,600.2,3261.639473089171,0.0015499760677147,1.0,56.08156468274122
20164,경기도 안양시 만안구 안양2동 839-3,37.40308993,126.9159286,2299.90751676506,831.4,8026.713672540561,0.003551615908141,1.4,57.89584747587719
27656,경기도 의정부시 신곡동 713-6,37.73175123,127.0576646,1435.76603747678,62.0,6845.264801469353,0.0038827097906894,1.0,57.98165292324562
8505,경기도 부천시 심곡본동 630-35,37.4768585,126.7760634,2855.25002977369,2076.0,3836.849614013946,0.0034962013478449,2.0,56.58882975
1847,"경기도 과천시 중앙동 6-1(정부과천청사 정류장, 안양방향)",37.42680377,126.990172,1852.44093729864,363.2,4822.233649845968,0.0018604391079665,0.8,57.31079338596491
25674,"경기도 용인시 수지구 죽전동 1484 죽전어린이공원, 휴먼빌 앞",37.329562,127.116928,11397.5040727571,649.0,5078.047956965523,0.0088108974733238,2.0,57.4927593991228
31926,경기도 평택시 비전동 988-3,37.00566966,127.1028984,2061.4688691662,69.0,4028.196818516521,0.0053522007432552,2.0,60.445309631578944
20190,경기도 안양시 만안구 안양3동 695-190,37.40004997,126.9177834,2353.37274781413,574.8,9437.82705892268,0.0031204064244253,1.0,60.32885704824561
24422,경기도 오산시 수청동 산32-1,37.162522,127.067879,1543.23796292911,12.0,2772.61495443369,0.0035033055689236,2.0,57.35446850438596
1347,경기도 고양시 일산서구 대화동 2225,37.67535228,126.7471338,4846.83584171477,82.8,6474.992205909032,0.0033344766771666,2.0,59.33724447807018
8020,경기도 부천시 상동 605-6,37.49070063,126.7425825,2158.30277451257,332.0,6856.445923759349,0.0043534121253043,1.0,60.14832116885965
3786,경기도 군포시 금정동 727-7,37.36548124,126.9413361,773.4280594104748,1527.6,4749.9559720078905,0.0083698075276434,1.0,57.279821947368426
8501,경기도 부천시 심곡본동 622-10,37.47781914,126.7754434,2735.78617850862,2076.0,4906.953612827749,0.0040776437872609,0.8,57.343800043859645
3980,경기도 군포시 당동 883,37.34301644,126.9446411,2146.22978218425,552.0,11913.130652397454,0.0020791434855261,1.0,56.08156468274122
25896,"경기도 용인시 처인구 김량장동 342-9 대교주택앞(용인시 예절원 골목), 383",37.233373,127.203266,4393.48590148715,1290.6,292.9827952659181,0.0016347705493586,1.0,56.7571921381579
6391,경기도 남양주시 진건읍 용정리 780-1번지,37.657551,127.1788893,3605.22849827305,2207.0,691.1768452788414,0.0052564088239177,0.8,56.80498142982456
2117,경기도 광명시 광명동219,37.47845265,126.8470071,1617.6700015506,547.0,4872.332474411908,0.0035581620359536,2.0,59.42655503728069
19388,경기도 안양시 동안구 범계동 1040-1,37.39091542,126.9520662,773.4280594104748,1292.4,12650.842044276951,0.0024022752324815,1.0,58.284832149122806
1485,경기도 고양시 일산서구 주엽동 155,37.67090536,126.7617934,4304.4877314121,450.4,7599.071215528335,0.0038117944207811,1.0,60.74396366447368
16422,경기도 안산시 단원구 초지동 773,37.31306036,126.8180471,3992.20724032022,72.0,9902.166815727373,0.0085619306504714,1.0,56.08156468274122
3319,경기도 구리시 교문동 750,37.59570154,127.1332806,2574.69438214472,1659.0,2394.785891122094,0.0034527689850689,2.0,57.80821054605262
16685,경기도 안산시 상록구 본오동 879-1번지,37.30070904,126.8630236,3083.24461450925,456.2,9767.360776248806,0.0028042853205115,1.2,56.898311923245615
19659,경기도 안양시 동안구 호계1동 954-17,37.37241849,126.9540318,2053.91749072583,292.0,10608.247397492449,0.003202346522902,1.0,56.574976934210525
27947,경기도 의정부시 의정부동 549-4,37.73390014,127.0398114,2970.1410076993,745.0,12913.677561017808,0.0026876445720381,0.6,56.29034431578948
26474,경기도 의왕시 고천동 483-1,37.34980874,126.9771934,948.450624425,930.0,1814.290870459734,0.0056641561001885,0.6,56.08156468274122
8092,경기도 부천시 소사본동 147-18,37.47769751,126.7925565,3606.94240575161,1492.0,9131.142450956817,0.0076483108374963,1.0,56.08156468274122
7707,경기도 부천시 내동 32-3,37.51775402,126.7733487,2089.16784169806,1068.0,5515.498736650006,0.0081103663215658,1.0,60.92083647149123
7687,경기도 부천시 괴안동 99-32,37.48032594,126.8102549,4698.0427151623,1254.0,4320.264483378784,0.0044012997709709,1.0,60.12053247368421
14951,경기도 시흥시 신천동 753,37.4392715,126.7800754,5303.26735051673,121.0,4431.166237083917,0.0046067623242245,1.0,60.91309393421052
880,경기도 고양시 덕양구 행신동 755,37.6161369,126.8355123,4682.38334543874,352.0,11280.61164041993,0.0036754605214874,0.8,57.569256565789466
854,경기도 고양시 덕양구 행신동 180-11,37.6190574,126.8429814,4465.53644250514,74.6,2592.235405178806,0.0032687036434078,2.0,57.27715015789473
11070,경기도 수원시 권선구 곡반정동 604-1,37.23415167,127.0244455,7619.00103490871,960.0,1403.3335876521055,0.0048942177806392,2.0,57.09414375438596
7816,경기도 부천시 범박동 산 18-4,37.47070883,126.8062649,5022.61780091375,1106.4,3525.79744941436,0.006946198818125,1.0,59.53459015131579
15504,경기도 안산시 단원구 고잔동 656-9,37.32825633,126.8211353,5463.99123436732,139.0,4632.945944197707,0.0065070839148763,1.0,59.52522577850877
1993,경기도 광명시 광명동 247-23번지,37.47454465,126.8477084,1622.35222116608,547.0,5141.918584365328,0.002931525076463,1.0,57.406352842105264
8583,경기도 부천시 약대동 203,37.51070523,126.772127,1350.94014913597,1813.0,9700.934644340186,0.0029702007800202,1.0,58.78378184868421
13923,경기도 수원시 팔달구 매교동 124-4,37.26811538,127.0153332,9424.34901469208,1479.0,7604.55227770065,0.0044583638390053,1.0,58.83980056140352
17506,경기도 안산시 상록구 팔곡이동 382-1,37.29726018,126.8842109,4435.31483870742,0.0,6317.509441314783,0.0065329526372374,2.0,59.41991833114034
12169,경기도 수원시 영통구 매탄동 1176,37.25563063,127.0377637,9668.7332079385,1527.0,7336.3614944704,0.0037088159808467,1.2,58.029345934210525
30715,경기도 파주시 아동동 327-16,37.76513652,126.7784738,1884.26511096221,203.0,11856.217608634344,0.0015322007849849,2.0,59.758320712719296
4161,경기도 군포시 도마교동 472,37.31484563,126.924479,5122.6311961038,785.0,1944.7258315189783,0.0021534358208388,2.0,60.44200041228071
7681,경기도 부천시 괴안동 91-14,37.47882298,126.8094092,4715.79818158576,1254.0,4320.264483378784,0.0042024571851221,1.0,58.89652773245614
32226,경기도 평택시 송화리 770-7,36.96269416,127.0553993,5503.29397607399,212.0,2251.698482676888,0.0065203399514266,1.0,58.56215957675439
7990,경기도 부천시 상동 558-1,37.50105441,126.7534859,895.44391428589,1421.0,10496.689691386477,0.0048227924637515,1.0,60.80235114035088
33044,경기도 평택시 통복동 288-1,36.99466022,127.0793712,2730.25963831714,219.0,12823.99983744231,0.0016281483916107,1.0,61.86194814372806
33065,경기도 평택시 통복동 74-17,36.99868892,127.0860092,2366.23640911687,467.0,10112.057178894527,0.0021480238553355,1.0,61.61279007894736
16752,경기도 안산시 상록구 본오동 992,37.29831366,126.8591822,2655.28930001372,29.0,12855.2231885413,0.0015629705450005,1.0,58.94579529824561
7882,경기도 부천시 상동 324,37.4874449,126.7622293,1464.55770560307,2314.0,10028.673610937676,0.0035364063682677,1.4,59.28800990131578
1641,경기도 과천시 과천동 555-69,37.4502622,126.9971225,1203.2635463054,1671.0,10167.24274738297,0.0006561854117679,1.0,57.62871828070176
8286,경기도 부천시 송내동 632,37.48662975,126.7644882,1551.96313064253,2314.0,9259.607558983158,0.0060298782659502,1.0,56.12290519078948
26670,경기도 의왕시 오전동 100-3번지,37.36029852,126.9684864,1752.95355114594,2260.0,2440.97999966872,0.0025580696969011,1.0,59.259088188596486
2465,경기도 광명시 하안동 52-7번지,37.46126363,126.8804571,2353.45713879173,986.0,6990.885388326111,0.0029356992622785,1.0,59.6160470635965
8495,경기도 부천시 심곡본동 607,37.48089437,126.7757078,2434.27019994628,2076.0,7144.647120362701,0.0025374131787159,2.0,58.44197740570176
27176,경기도 의정부시 가능동 744-32,37.74140436,127.0365415,3337.84732134184,482.0,5815.585284305633,0.0046463240417884,0.8,58.74415750438597
533,경기도 고양시 덕양구 관산동 186-10,37.68568582,126.8658638,4318.0096554928,1166.0,1776.4460853804962,0.0013759495155986,1.0,57.78451324342105
8446,경기도 부천시 심곡동 498,37.48428998,126.7826878,2474.25614809756,1563.2,6399.407124048349,0.0028064908099375,0.8,57.659225508771925
3987,경기도 군포시 당동 899-20,37.35016865,126.9474789,1656.42858362096,373.6,11285.048415581385,0.001830633842766,0.4,58.27529380482456
8932,경기도 부천시 원종동 136-2,37.52692597,126.8026282,4519.78851623375,1020.8,1247.589752707575,0.0037525265840229,2.0,56.08156468274122
13206,경기도 수원시 장안구 영화동 426-9,37.28780194,127.0066443,7128.21059659675,1690.2,3341.217467603056,0.0028643024089277,1.0,56.08156468274122
33930,경기도 하남시 덕풍동 370-113,37.53748974,127.1993864,1265.37324605601,11.0,180.9593567137372,0.0039554967215251,1.0,56.08156468274122
27925,경기도 의정부시 의정부동 496-3,37.73747079,127.0448171,2544.63747668183,301.0,9619.93795164998,0.0014870098994516,1.0,58.38946971491228
19834,경기도 안양시 만안구 박달1동 94-115,37.40091735,126.9090636,1646.30814694665,1478.6,13074.003929326738,0.0020722882446104,1.0,61.29663133333334
3793,경기도 군포시 금정동 743-23,37.36216842,126.9420618,773.4280594104748,1516.0,5541.426469756676,0.0028584561627463,0.6,59.73505764035088
24239,경기도 오산시 궐동 산17-2,37.162343,127.057751,892.625487251704,1914.0,2649.987090462636,0.0029068138372855,2.0,59.377432967105264
14785,경기도 시흥시 대야동 456-2,37.446542,126.7895465,6144.34674294689,11.0,1425.404796318608,0.0053771661195388,1.0,58.239626317982456
8157,경기도 부천시 소사본동 286-2,37.47261241,126.7998762,4464.09009384859,2224.0,4844.964119681868,0.0038315466299729,1.0,59.140116188596494
10469,경기도 성남시 수정구 태평3동 4452번지,37.447091,127.130381,11337.1606759816,1014.0,7871.970676122468,0.0064559236715563,1.0,59.371067587719295
14007,경기도 수원시 팔달구 매산로2가 81-9,37.26644593,127.0039979,9204.13711174066,800.6,4027.175987138106,0.0017432097580715,1.0,56.72264058333333
9682,경기도 성남시 분당구 수내1동 6-9번지,37.378271,127.115101,12110.2977696152,657.2,8755.941489683686,0.0035372274451136,1.0,58.14545358333333
2238,경기도 광명시 소하동 904번지,37.43853325,126.8808254,2166.85998239803,464.0,3066.043971300262,0.0083552483514753,1.0,60.95528089254386
7823,경기도 부천시 삼정동 222-10,37.52275321,126.7713538,2551.61349980212,738.0,4131.776875939206,0.0021213121044166,1.2,61.35898394078948
5825,경기도 남양주시 별내동 1086번지,37.65258432,127.1142291,3808.08586289291,1415.0,1028.3500159473972,0.0060690137921633,1.0,60.36594585745614
2562,경기도 광주시 곤지암리 453-229,37.34915197,127.3370527,11782.7479930594,1695.0,1910.687926614189,0.0020022140282122,1.0,59.9650722368421
6150,경기도 남양주시 와부읍 덕소리 142-24,37.5870062,127.2162779,3984.36719293456,458.0,1418.8867978602796,0.0073122713821551,2.0,59.40328917105263
9028,경기도 부천시 원종동 364-11,37.52076227,126.8059447,4360.0867107281,1267.8,3002.936473451853,0.0034060601248587,1.0,58.26586216447369
24493,경기도 오산시 오산동 844-7번지,37.1524148,127.0695488,1440.8694413837,1438.6,8608.839199227672,0.0038735410760144,1.0,60.43214765131579
14813,경기도 시흥시 대야동 501,37.4422412,126.7878524,5696.67618609502,1131.0,1271.00775366226,0.0022544129766051,1.0,60.27199190350878
19942,경기도 안양시 만안구 석수2동 256-1,37.41871768,126.9064839,2910.95815803927,1111.0,9436.410408332653,0.0019814322927225,1.0,60.17999225438597
7881,경기도 부천시 상동 323-12,37.4876189,126.7616374,1450.6439862766,2314.0,10028.673610937676,0.0038414555821132,1.4,59.495411535087726
14840,경기도 시흥시 매화동  99-3,37.4172975,126.8174072,4511.82920690797,1821.0,376.1406269420031,0.0050026450796318,1.0,59.44685651096491
1175,경기도 고양시 일산동구 장항동 771,37.66007699,126.7714048,4982.64458705873,379.0,8057.016781180711,0.0011952841062658,2.0,59.26582762280702
15084,경기도 시흥시 정왕1동 1417-9,37.3392808,126.7502525,6293.02784781962,152.0,781.7050431505646,0.0084369047052599,1.0,60.82553996052632
24501,경기도 오산시 오산동 861-14번지,37.1496857,127.0695856,1165.06110233765,878.4,13014.10284771718,0.0062820557285369,1.0,59.404141620614034
3417,경기도 구리시 수택동 382-6,37.59936042,127.1389382,2483.42198155776,416.8,3076.920579469659,0.0020039189599521,2.0,56.39794068640351
9150,경기도 부천시 중동 1060,37.50774361,126.7753919,1309.39813778834,444.0,7236.195482542736,0.0055828111823849,1.0,60.63232135526316
4757,경기도 김포시 대곶면 율생리 331-2,37.648114,126.582934,8003.08982975148,1782.0,77.052524262322,0.0061629263301789,1.0,60.5051992368421
3844,경기도 군포시 금정동 855-3,37.36009562,126.9423133,773.4280594104748,1901.0,5188.254279648938,0.0056183144651369,2.0,58.9904060372807
16982,경기도 안산시 상록구 사동 1406-8,37.28322721,126.8523189,1249.7159126747,981.0,4240.747938969887,0.0033806829213573,0.8,57.48487770614035
3841,경기도 군포시 금정동 851-7,37.35986623,126.9414568,773.4280594104748,1901.0,5023.920167702451,0.0052049363975443,2.0,58.05083340131578
20298,경기도 안양시 만안구 안양6동 441-37,37.38906649,126.9311071,2358.62231906289,987.0,8874.302514450195,0.001820159281179,1.4,61.86194814372806
7793,경기도 부천시 도당동 89-1,37.51507466,126.7832871,2367.87294110777,1807.0,4725.399307736312,0.0020054040868231,2.0,61.635178995614034
8846,경기도 부천시 옥길동 780-5,37.46015875,126.8121247,4381.02715351571,1038.8,6504.735048776627,0.0021042035939398,0.2,59.9111501008772
26563,경기도 의왕시 내손동 758,37.37886559,126.9751762,2363.87705975988,462.0,5447.414572836913,0.0060196187644994,2.0,58.01466839254385
20375,경기도 안양시 만안구 안양8동 363-4,37.37997818,126.9362361,2051.71116793167,808.0,11509.052340301503,0.0060213096227935,1.0,60.70128778070175
8427,경기도 부천시 심곡동 407-7,37.4882858,126.7787132,1910.90768732706,2083.0,10071.799944962306,0.0023469793650459,1.2,61.86194814372806
24863,경기도 용인시 기흥구 마북동 600(도) 하이츠빌 삼거리,37.296374,127.115133,9894.6678548008,1798.0,3760.2746266252775,0.0051082688257724,1.0,61.28917452192982
8987,경기도 부천시 원종동 283,37.52262742,126.8058369,4461.77389289788,1209.2,2683.935284691317,0.001998090895402,2.0,59.9958098508772
8962,경기도 부천시 원종동 221,37.52515522,126.8034596,4453.31300892641,797.6,2287.4753173298745,0.0023063962546174,2.0,59.63276046929825
7999,경기도 부천시 상동 570-7,37.49831656,126.7524158,1020.57638996169,967.0,10534.05735141932,0.002598018983774,1.0,59.40953667105264
20241,경기도 안양시 만안구 안양4동 714-109,37.39514907,126.9177978,2292.38998958564,832.4,9252.39555364561,0.0036347709927415,2.0,59.38237551973684
30748,경기도 파주시 야당동 14-1,37.72360418,126.7711608,2775.43428753056,9.0,10548.7620791413,0.0008435569766195,1.0,59.531790059210536
2136,경기도 광명시 소하2동 1234 한솔어린이공원,37.43682623,126.8833468,2452.52353560679,284.0,3518.3518677595494,0.0047652553402829,0.2,61.86194814372806
16462,경기도 안산시 상록구 건건동 636-6,37.30456945,126.9014919,6165.39801768214,2214.0,3305.1033971061656,0.0086816574262967,1.2,61.48028010964912
26452,경기도 의왕시 고천동 272-2번지,37.34785959,126.975923,773.4280594104748,344.4,1641.477388702995,0.0073771585777972,0.6,59.1663785767544
38015,경기도 화성시 진안동 514-4,37.21143728,127.0378053,4858.0023537154,199.0,7794.880496252093,0.0041233634546044,2.0,58.30608697368421
20482,경기도 안양시 만안구 안양동 212-8,37.3906357,126.9335356,2109.94283694332,1175.0,8103.344166725872,0.0036650248434605,1.0,60.75587464035087
27981,경기도 의정부시 의정부동 602,37.73206201,127.0399589,2971.07281185587,745.0,12913.677561017808,0.0038663485573641,0.6,56.39639030921053
6737,경기도 남양주시 호평동 702,37.65372699,127.2468839,8768.92551797625,242.0,8453.744105411382,0.0075876552893677,0.4,56.08156468274122
9165,경기도 부천시 중동 1085-9,37.50356541,126.7804782,1527.74718925229,1047.0,9944.173556518675,0.0086730980380981,1.0,58.83405004605264
20296,경기도 안양시 만안구 안양6동 437-3,37.390217,126.9304319,2388.46209027212,950.4,7335.350227988755,0.0019945745865245,2.0,59.93001660526317
12161,경기도 수원시 영통구 매탄동 1161-12,37.25816435,127.0402855,9919.91050430632,1072.0,5170.127729166967,0.0081795727579745,1.2,59.16607748464911
3338,경기도 구리시 교문동 800-11,37.59027283,127.1324464,2345.55625544366,590.0,2097.710166388526,0.005050945449576,1.0,56.31736889035088
9206,경기도 부천시 중동 1169,37.50402708,126.7603691,773.4280594104748,1086.0,8827.272647078487,0.0045313942472576,1.0,56.84584012280702
27279,경기도 의정부시 금오동 432-3,37.75109289,127.0517417,2634.88660186857,26.0,5973.190346661665,0.0018427161741324,1.0,58.6964081864035
9057,경기도 부천시 작동 14-5,37.5191375,126.8163593,5096.43948455333,815.0,3368.313017855899,0.004646078392167,1.0,58.82780544736841
15725,경기도 안산시 단원구 선부동 1031-16,37.34253427,126.8055789,5956.20594805543,621.0,3435.2730141719403,0.0037656504248239,2.0,58.95203807017543
38076,경기도 화성시 진안동 887-1,37.21160723,127.0417822,4792.5094413104,2147.0,11082.362409178995,0.0069966738817011,1.0,59.22475724122807
27989,경기도 의정부시 의정부동 639,37.73409669,127.0382081,3110.71187671053,570.0,13040.53459254727,0.0030446116018584,1.2,57.89349945175439
19810,경기도 안양시 만안구 박달1동 4-4,37.40697061,126.9071811,1880.06929971003,1352.0,3433.825682337081,0.0017918005424606,1.0,57.48526293640352
8376,경기도 부천시 심곡동 330-20,37.48939394,126.7756823,1639.07742776802,1450.0,9071.169145340737,0.0034090860043929,1.0,57.47962664692982
17363,경기도 안산시 상록구 이동 733,37.30951008,126.8493809,3306.76839205224,750.0,9309.221459043154,0.0038251157994782,0.2,56.34112808771931
16101,경기도 안산시 단원구 와동 753,37.33978966,126.8219057,6686.07304810358,776.0,2295.882803347332,0.004434922421567,2.0,61.81830456798245
9098,경기도 부천시 작동 48-3,37.51762163,126.816209,5018.65550956879,815.0,3778.280983515936,0.004536545209685,1.0,61.86194814372806
11128,경기도 수원시 권선구 구운동 895,37.28523298,126.9723112,6582.56862237977,642.0,3413.515221404072,0.0044226539875059,1.0,59.114803820175446
10461,경기도 성남시 수정구 태평3동 3756번지(수진초등학교),37.4443519,127.1331439,11196.2710796215,23.0,12604.366881730726,0.0046259538137024,1.0,57.83919530921053
1737,경기도 과천시 별양동 18-7,37.42575561,126.9953764,1732.32293238933,53.0,13323.837080634958,0.0048696069895539,2.0,58.49090949342106
5647,경기도 남양주시 금곡동 404-253,37.63508106,127.2067288,4953.55535487713,806.0,3445.26647175935,0.0020995645810769,2.0,58.902821331140345
16415,경기도 안산시 단원구 초지동 740,37.3059619,126.8158002,3423.10842700044,224.0,4250.943512572505,0.0036275086290283,1.0,57.356910122807015
26750,경기도 의왕시 오전동 산 83-4,37.36076089,126.9632891,1868.88923741732,1404.2,3061.4463932992294,0.0018042917642039,1.0,58.561100703947375
11125,경기도 수원시 권선구 구운동 840,37.28145665,126.9712647,6997.57323339125,642.0,3185.46989524655,0.0023624041222767,2.0,58.24635242763159
33979,경기도 하남시 덕풍동 642-1,37.53747846,127.2020465,1030.60589878542,1551.0,191.52117886348168,0.0052529642674608,1.0,60.39602132675439
5012,경기도 김포시 양촌읍 양곡리 1243(화훼동산1호공원책로1),37.660429,126.6343853,3958.7427754236,199.0,1617.6129814399226,0.0052477927059827,2.0,59.46968610526316
3943,경기도 군포시 당동 786-14,37.35004032,126.9431781,1450.2361212225,736.4,7384.325826036979,0.0041914765351223,1.2,60.88142112938596
585,경기도 고양시 덕양구 도내동 58-1,37.62974264,126.871982,1955.21766156979,578.0,2996.239101798987,0.0052899407080169,2.0,58.36107668640351
14982,경기도 시흥시 신천동 872-15,37.4307668,126.7902692,4489.78723762277,2157.0,999.1546654582872,0.0034422705963733,1.0,59.53479066447368
8440,경기도 부천시 심곡동 465-15,37.48507062,126.7776695,2124.99052162274,1450.0,9548.437821554391,0.0015456538322339,0.6,60.62458429824562
3605,경기도 구리시 인창동 314-8,37.60356356,127.1389,2858.51295773894,1225.0,3337.9078082688507,0.0019372037145582,0.2,58.47493592324561
12614,경기도 수원시 영통구 원천동 549-3,37.26815789,127.0595791,10984.211613549,807.0,1399.8708827230623,0.0052343109854344,1.0,58.16446364912281
32854,경기도 평택시 죽백동 582-9,37.00321293,127.1213642,2052.19190526502,698.0,2640.461100614688,0.0052258034905919,1.0,60.01312103508772
27785,경기도 의정부시 의정부동 154-1,37.74254115,127.0508017,2176.56065777186,23.0,6382.068472884456,0.0022148523954268,1.0,59.78976001535088
20156,경기도 안양시 만안구 안양2동 824-12,37.4051816,126.9142062,2263.70201958486,615.8,7532.347973985359,0.0037133280550306,1.4,57.91401035745614
7603,경기도 부천시 괴안동 106-1,37.48093806,126.8116631,4748.94111760202,1284.0,3824.416456924583,0.0089137868938517,1.0,58.82245907456141
20892,경기도 양주시 덕정동 149-10,37.842436,127.065389,6706.62125948242,40.0,10780.32420526553,0.0075102555602875,1.0,57.47182909210526
4868,경기도 김포시 북변동 759 (북변자주식주차장 옆),37.628344,126.7027074,3042.98281300261,2254.0,3257.969569012866,0.0080186963760396,1.0,57.66015145833334
8858,경기도 부천시 원미동 134-9,37.49223518,126.7848855,2098.03792076857,1030.2,6546.885151898551,0.0029461504939115,1.0,59.57366915570175
10658,경기도 성남시 중원구 도촌동 745번지 도촌중학교 앞 도촌천3교 앞,37.4162437,127.1530823,9624.18551767051,1658.0,7771.398124944278,0.0078008403751592,0.6,59.40253396929825
33167,경기도 평택시 합정동 484-7,36.99118078,127.0993889,922.223013494164,79.0,7396.732554508394,0.0038764819113378,0.8,59.40173256140351
19349,경기도 안양시 동안구 관양동 1728,37.40560835,126.9705003,1730.70470430678,2103.0,13086.503574919465,0.0040869686131395,2.0,56.3699294495614
24216,경기도 오산시 궐동 675-12번지,37.1585182,127.0552208,1216.87574422206,17.0,1745.0623672786485,0.0039687952358256,0.6,56.78596566885965
17048,경기도 안산시 상록구 사동 1569-6,37.30121178,126.8380152,2242.77564105938,194.0,7633.679119794712,0.0022529157509101,1.0,56.08156468274122
19580,경기도 안양시 동안구 신촌동 1075,37.37771639,126.9575779,1851.91327338474,1478.6,12767.178575335309,0.0050601117694337,2.0,56.08156468274122
31841,경기도 평택시 비전동 602-1,36.99624099,127.0950019,1550.92095734497,0.0,8670.011990593237,0.0054289252033646,1.0,56.73331216008773
10595,경기도 성남시 중원구 금광1동 244번지 단남초 주변,37.4428522,127.1605983,8762.70722139486,1239.6,8756.825659508486,0.0050942134949335,1.0,58.8954160986842
15005,경기도 시흥시 월곶동 994-2,37.3873611,126.7430225,3130.24472469567,1077.0,3631.333170502919,0.0027014161143976,2.0,60.26011101535088
28177,경기도 의정부시 호원동 455-1,37.71228242,127.0481139,3353.60018029567,587.0,6190.672704414051,0.0021983065568394,1.0,58.72306192982457
32931,경기도 평택시 지산동 814-4,37.07813951,127.0556965,6932.49092257304,61.0,9451.740042310308,0.0021479770614051,2.0,60.701554057017546
23363,경기도 여주시 상동 148,37.29361137,127.6454443,2800.87458534922,125.0,915.4967278228896,0.0048473711890952,1.0,59.21778914035088
2291,경기도 광명시 일직동 380-10번지,37.41338854,126.8831908,2160.13397304844,700.0,6945.463599611048,0.0064488299434996,1.0,59.5259917258772
24202,경기도 오산시 궐동 657-1번지,37.1576241,127.0581444,1382.56487085185,1146.0,1765.728303011131,0.0055819354366552,0.6,58.76662722807018
16031,경기도 안산시 단원구 와동 106-5,37.34160538,126.8289228,6777.14481872864,927.0,2077.327430368013,0.0048657880873783,1.0,58.48870524561404
19661,경기도 안양시 동안구 호계1동 960-5,37.37031401,126.957123,2165.76067962051,2228.0,10828.086889733631,0.0016182085254713,1.0,59.50119063377193
15253,경기도 시흥시 정왕본동 1179-3,37.3460596,126.7517533,5551.3559360547,897.0,6143.12983950493,0.0064715586946375,1.0,60.365831846491226
33933,경기도 하남시 덕풍동 371-42,37.53780043,127.2010491,1117.71310378361,829.8,187.88387604534373,0.0089169727973687,1.0,59.1145909495614
28000,경기도 의정부시 의정부동 697,37.73468019,127.044686,2538.95933483924,301.0,9619.93795164998,0.0017888629822836,1.2,59.46774018201755
16329,경기도 안산시 단원구 원곡동 994-2 우리은행 부근,37.32227998,126.7873824,6441.96846564403,706.0,8303.30360464413,0.0009745148726583,0.8,58.66433199122807
8083,경기도 부천시 소사본동 133-4,37.47982118,126.796495,3711.04609864462,1492.0,10564.424378286372,0.0019976236848639,2.0,57.49255931578946
27836,경기도 의정부시 의정부동 224-1,37.74763073,127.0453451,2860.08025610586,871.0,11499.88515371608,0.0073615546302911,1.0,57.7120607258772
24213,경기도 오산시 궐동 67-4번지 안국아파트,37.1561477,127.0671445,1784.52495286258,2346.0,5910.916089712312,0.0021651002747771,1.0,61.38267039035087
3900,경기도 군포시 당동 739-12,37.35133772,126.9392392,1180.17784467621,876.0,5372.476037273603,0.0023345283770361,1.0,57.08647267543859
33957,경기도 하남시 덕풍동 435-222,37.53621013,127.1999764,1226.84998392108,11.0,181.3785596603504,0.0040842486575802,2.0,57.45097464912281
6351,경기도 남양주시 진건읍 사능리 645-1번지,37.65460648,127.1777831,3305.61854036665,2207.0,732.1264190119026,0.0052564088239177,2.0,56.73018959210528
15615,"경기도 안산시 단원구 광덕동로 25(고잔동, 안산레이크타운 푸르지오)",37.30545085,126.8304629,2804.64491289055,143.0,9123.68770336256,0.003230929375473,0.4,56.225765861842106
15028,경기도 시흥시 은행동 277-1,37.4328491,126.7958787,4852.72278209585,390.0,1044.298000092643,0.0034821438942158,2.0,56.20083464035087
12224,경기도 수원시 영통구 매탄동 1284,37.25489308,127.0428201,9536.02783614829,14.0,10012.724415124669,0.0021774035386699,1.0,58.08490656140352
4860,경기도 김포시 북변동 667-2 (제일옥 뒷길),37.626212,126.710029,3719.31941940877,144.6,2092.669999273534,0.0062627068705553,1.0,58.0847374254386
20833,경기도 양주시 덕계동 281-10,37.81344167,127.0553472,6037.77641519581,58.0,3446.842583898704,0.0046137401293669,1.0,59.31487393640352
9675,경기도 성남시 분당구 수내1동 31번지 초림어린이공원(분당43호),37.3753733,127.1176133,12476.8513493101,101.8,13992.3458157254,0.0066736451919913,1.0,59.124411473684205
27723,경기도 의정부시 용현동 30-32,37.7358965,127.0872614,1218.65116929041,127.0,3585.492703129136,0.0033666697228005,0.4,59.10000248903509
2352,경기도 광명시 철산동 384번지,37.47624188,126.8697928,773.4280594104748,2001.0,11033.222383212724,0.0031094644921711,1.6,58.39279462280702
6367,경기도 남양주시 진건읍 송능리 산22-6,37.67671767,127.2050517,6739.87784392656,1059.0,947.7821845123448,0.0014375620161103,2.0,56.08156468274122
3634,경기도 구리시 인창동 565-3,37.60322669,127.1340412,3090.33123893717,2274.0,2767.096020466149,0.0036696200436019,1.0,56.08156468274122
8194,경기도 부천시 소사본동 91-11,37.48164378,126.7922817,3294.32176959812,1249.0,6911.773164486944,0.0024860096165699,1.0,58.611307543859645
8961,경기도 부천시 원종동 217,37.52395242,126.8027804,4324.76050859117,1044.8,1436.307550414486,0.0018084786822491,2.0,59.80122870175438
31839,경기도 평택시 비전동 600-26,36.99751096,127.0946917,1661.53529966948,785.0,8138.696981653461,0.0074572900723379,2.0,61.45049423464912
19238,경기도 안양시 동안구 관양2동 1468-11,37.40333263,126.9693248,1480.38742151249,2103.0,11478.065567740832,0.0043238425025472,1.0,60.42508756798245
24588,경기도 오산시 원동 783-1번지,37.143781,127.069337,773.4280594104748,1014.4,6344.834492611742,0.0019383088840736,1.0,58.56335577850878
20364,경기도 안양시 만안구 안양8동 1280-2,37.37727588,126.9373415,1759.54303233693,251.0,7132.981935774716,0.0069478273898809,1.0,58.3156467017544
34220,경기도 하남시 신장동 560-1,37.54271482,127.2127456,773.4280594104748,48.0,263.53305153637945,0.0048212902518406,2.0,58.943172401315785
3836,경기도 군포시 금정동 850-1,37.35932169,126.9406704,773.4280594104748,2227.0,4985.474805583177,0.0051230152016581,0.8,57.31778534210526
32877,경기도 평택시 지산동 1086,37.07936916,127.0615396,6762.23229161414,937.0,4069.379558443164,0.0041231826872301,1.0,60.44577384210526
32363,경기도 평택시 신장동 326-7,37.08337445,127.054279,6370.40473315878,1139.0,3555.930424176533,0.0010663382249062,1.0,61.86194814372806
20054,경기도 안양시 만안구 석수동 188-6,37.41358001,126.9135887,2800.52715688271,307.0,5957.434233249045,0.0014633952276338,2.0,61.86194814372806
14808,경기도 시흥시 대야동 494-9,37.4442924,126.7861628,5901.51120269955,1204.0,1328.8713977865891,0.0040919568739373,1.4,60.95229436403508
26560,경기도 의왕시 내손동 755-1번지,37.37918462,126.9738921,2261.02703244042,462.0,5692.765465135376,0.0045524441680878,2.0,61.56203757675439
28035,경기도 의정부시 의정부동500,37.73669097,127.0436075,2642.26280042804,301.0,9972.599708285234,0.0014936408856223,1.0,59.98014887061403
8518,경기도 부천시 심곡본동 669-14,37.48261328,126.7796952,2450.9187034324,1682.6,6399.407124048348,0.0029411483453735,1.0,59.40894458771929
19617,경기도 안양시 동안구 평촌동 58-1,37.3938368,126.9764301,1729.87784570082,1537.2,9140.700800937924,0.0026312491133472,1.0,57.8358424627193
19980,경기도 안양시 만안구 석수2동 321-2,37.41379478,126.9116079,2701.55055515742,1036.0,6846.23336417169,0.0017904129522472,1.0,60.67854834210526
15903,경기도 안산시 단원구 선부동 산154-17,37.33452861,126.7997146,6606.75551878149,26.0,6090.17311195849,0.0080476950460343,1.0,60.84239348903509
8172,경기도 부천시 소사본동 403,37.46765479,126.8013699,4950.93806660734,396.0,3291.462806305073,0.0047509743868839,2.0,59.744624675438594
3848,경기도 군포시 금정동 868,37.35839368,126.9407563,773.4280594104748,149.0,5393.558660483895,0.0051230152016581,2.0,59.50758953947368
34213,경기도 하남시 신장동 544,37.53973343,127.2153058,773.4280594104748,1804.0,277.00138223862626,0.0048477613256337,0.4,58.94471633114035
27463,경기도 의정부시 민락동 785,37.74512425,127.0903709,1876.60698158935,481.0,3294.6186794497808,0.0066862863886465,1.0,57.96897750438597
7213,경기도 동두천시 생연동 455-37번지,37.90386938,127.059545,9626.09912247529,5.0,5876.379272671872,0.0045887638646007,1.0,58.38614222807018
885,경기도 고양시 덕양구 행신동 761-6,37.61421628,126.8344293,4888.30246099877,1790.0,6107.942289133233,0.0027650940489566,1.0,57.421414109649135
14046,경기도 수원시 팔달구 매산로3가 81-18,37.26823091,127.0083735,9159.41572225663,868.8,3168.538924592787,0.0035482554377721,1.0,58.17555871052632
15431,경기도 안산시 단원구 고잔동 539-20번지,37.31845974,126.8372207,4157.46416658453,299.0,4190.5266822319845,0.0026833356880598,2.0,56.19614568421052
1195,경기도 고양시 일산동구 장항동 902,37.64883011,126.7792923,4695.45939690637,348.0,12023.705129823478,0.0041338902163734,1.0,57.85296817763159
586,경기도 고양시 덕양구 도내동 64-2,37.63105648,126.8705636,2014.29717272121,493.0,3180.748614786689,0.0026238004198822,1.0,56.840757877192985
3705,경기도 구리시 토평동 293,37.5854043,127.1498223,773.4280594104748,602.0,2459.851499970924,0.0024076177350375,1.0,57.53188385745614
9022,경기도 부천시 원종동 360-6,37.51890304,126.8085986,4465.54444593833,335.0,3533.4045104388424,0.0044228914950094,1.0,60.01448841447369
27920,경기도 의정부시 의정부동 490-6,37.73761443,127.0377228,3167.84796918224,407.0,11003.64483565179,0.0024275862549996,1.6,58.5644200241228
1340,경기도 고양시 일산서구 대화동 2199-1,37.67535144,126.7509311,4588.665088361,667.0,7847.482680829067,0.0031329156056932,1.0,57.85214613815789
16682,경기도 안산시 상록구 본오동 879-16,37.29706191,126.8603239,2630.15366701936,29.0,12519.007670078809,0.0017404382859582,0.2,57.14334319298246
34185,경기도 하남시 신장동 450-5,37.53809171,127.2094128,773.4280594104748,1026.0,229.61272532474345,0.0019007963530279,1.0,56.75745626535088
19807,경기도 안양시 만안구 박달1동 28-25,37.40694731,126.9103846,2091.72207971837,1352.0,12943.404480652534,0.0017445235573831,1.4,57.65321366008772
17484,경기도 안산시 상록구 장상동 538-5,37.36147441,126.8742667,4054.30458529933,2332.0,2327.566310132732,0.0028882794278086,0.4,58.30316996929824
3936,경기도 군포시 당동 781,37.35177493,126.9459428,1432.6472608537,777.2,6202.067996143555,0.0018533960123717,1.4,61.326690254385966
9734,경기도 성남시 분당구 야탑3동 167번지 목련어린이공원,37.4078383,127.1391902,11047.2701111686,1352.0,4904.271913851828,0.0037951339647868,2.0,59.64028648245615
1166,경기도 고양시 일산동구 장항동 744,37.66287652,126.7656274,4895.21799492747,502.0,6650.842501318585,0.002331514522309,1.6,60.12109522149123
10227,경기도 성남시 수정구 산성동 599번지,37.455171,127.153011,9648.21827518307,674.2,10357.735704763136,0.0022758746972011,1.0,58.92532963157896
19420,경기도 안양시 동안구 부림동 1601,37.39407206,126.9625665,773.4280594104748,1545.0,12562.53470604451,0.0018947348513609,1.0,59.26674357894736
12426,경기도 수원시 영통구 영통동 1014-15,37.24962959,127.0769501,9167.80277538543,990.0,2478.072680459753,0.0039522437839512,0.8,56.89812032894737
26879,경기도 의왕시 청계동 827-12번지,37.38863039,126.9976315,3661.93590675737,96.0,6761.681728869021,0.0024340882499202,1.0,58.35882913377193
3777,경기도 군포시 금정동 719-2,37.36101083,126.9376202,773.4280594104748,1901.0,3700.318080900792,0.0029283706013739,0.2,57.27000206798246
1896,경기도 광명시 광명7동 313-1 [세현상사],37.47092431,126.8548418,1264.66826961013,2034.0,11001.911749462732,0.0029546838896514,2.0,57.347144078947366
27911,경기도 의정부시 의정부동 439-10,37.73947881,127.0443168,2623.24919942035,142.0,11065.158989838868,0.0018697511156226,1.2,56.08156468274122
12153,경기도 수원시 영통구 매탄동 111-156,37.26984123,127.0506701,11011.0249516351,1236.0,1567.5292059498786,0.0055690234863571,1.0,56.41096297368421
4560,경기도 김포시 고촌읍 신곡리 1276 (수기1어린이공원),37.599859,126.767829,983.520851220876,761.8,5434.123182420881,0.0037109582593291,1.0,59.71887044736842
8046,경기도 부천시 소사동 32,37.48491642,126.7969336,3422.1913659587,867.0,7747.3571508592995,0.0016594621112291,1.0,59.4486156754386
6663,경기도 남양주시 평내동 591번지,37.64780794,127.2378563,7846.93019155956,1396.0,4745.383626178404,0.0049141751857938,0.6,56.59644097587719
1241,경기도 고양시 일산동구 중산동 1566-1,37.68865199,126.7788781,1827.77935570135,273.8,5607.311879402064,0.00213681904085,0.6,57.16106088377193
7987,경기도 부천시 상동 551-3,37.50241218,126.7558256,773.4280594104748,258.0,9834.207249680292,0.0024303108062777,1.0,59.39301324780702
19720,경기도 안양시 동안구 호계3동 669-4,37.36832515,126.953896,1812.45838454992,1946.0,12722.055394852809,0.001316275068162,1.0,56.82416009429824
8787,경기도 부천시 오정동 611,37.52400843,126.7850124,3213.4672898239,919.0,2736.017064473671,0.0014218016610249,1.0,60.32098470394737
3835,경기도 군포시 금정동 846-1,37.36058703,126.9336762,773.4280594104748,975.4,8071.942269024159,0.0015442598402458,0.6,58.24426133114035
20287,경기도 안양시 만안구 안양6동 390-40,37.39365713,126.9279205,2566.51635028448,563.6,10224.703989700034,0.0039164069625855,1.0,57.24779442982456
3886,경기도 군포시 당동 261-12,37.3508007,126.9477114,1617.7761110451,373.6,13685.16140860394,0.0016783143322974,0.4,56.51309100877194
7756,경기도 부천시 도당동 244-8,37.50952476,126.7777621,1596.05670434638,611.0,12353.38608395255,0.0021464024701259,1.0,58.82028749342106
16172,경기도 안산시 단원구 와동 846,37.33134629,126.8192048,5841.49510211054,88.0,3596.884621652024,0.008363755021896,1.0,57.98035710964911
2183,경기도 광명시 소하동 1338-3번지,37.4472958,126.8845292,2258.22687954278,979.2,2866.929897096471,0.0035701294762338,0.6,59.062223703947375
16871,경기도 안산시 상록구 사동 1171-9,37.30130346,126.8415236,2268.42282061309,128.0,4429.45515807849,0.0052574856282306,1.0,58.72360361622807
2056,경기도 광명시 광명동 5-2번지 우성빌라,37.49106459,126.8652024,1371.83713105697,576.0,8848.133821197584,0.0022947186231316,1.0,59.3403813377193
26464,경기도 의왕시 고천동 351-14,37.3534718,126.9702686,1003.81990661514,1353.2,2423.379885597952,0.003831754011461,1.0,57.76177584649123
749,경기도 고양시 덕양구 주교동 296,37.66279807,126.8292082,773.4280594104748,69.0,4393.35137739892,0.0019338306932161,1.0,59.173587164473695
5755,경기도 남양주시 다산동 618-3,37.60553075,127.1583142,2591.04416959051,23.0,8180.433573001841,0.0023591784771465,1.0,59.36854193859649
1189,경기도 고양시 일산동구 장항동 880,37.64680098,126.7782673,4569.20529702207,348.0,7904.070423479588,0.0041255204582426,1.0,58.95165681578948
4157,경기도 군포시 도마교동 457-1,37.31733759,126.918847,5111.69088828995,313.0,2602.7763997488414,0.004347044093103,1.0,58.97561265789473
7846,경기도 부천시 삼정동 301-29,37.51852964,126.7719607,2122.08093709286,851.0,5106.812758299283,0.0052671965469807,1.0,59.78482433991229
13169,경기도 수원시 장안구 영화동 306-1,37.29201327,127.0114342,6941.02095146797,1383.0,2465.6680321269496,0.0030662595639337,0.8,58.93604042982457
35458,경기도 화성시 반월동 862,37.23078379,127.0627386,6878.88769117197,283.6,5291.011021912665,0.0025254978970304,2.0,58.2708548991228
27835,경기도 의정부시 의정부동 224,37.74392419,127.0471385,2533.70001806481,2207.0,7793.411987714429,0.0071787695465952,1.0,59.77513351535089
20369,경기도 안양시 만안구 안양8동 342-41,37.37811864,126.9375602,1854.56173976041,954.0,7980.934650069941,0.0044111646637089,2.0,59.42534927192982
15527,경기도 안산시 단원구 고잔동 676-1,37.3270928,126.8368401,5115.81971518997,282.0,10172.757340426468,0.0044343886536216,1.0,57.827636789473694
13703,경기도 수원시 장안구 파장동 558-17,37.30921728,126.991349,4394.66926185198,1489.0,4681.351244022715,0.0052020212764715,1.0,57.290309236842106
15113,경기도 시흥시 정왕1동 2160,37.3383381,126.7561348,6207.78015760745,1849.0,1200.297236546723,0.0032920134889151,1.0,59.000040662280696
3939,경기도 군포시 당동 783-59,37.3508097,126.9457806,1506.04136022271,792.0,11314.972253729888,0.002198837716072,0.4,59.05987030701755
26653,경기도 의왕시 삼동 471-22번지 동아하이츠다세대,37.32146696,126.9498472,3057.59249721707,653.0,9853.058604970767,0.0017142271539968,1.0,59.50149022149123
24712,경기도 용인시 기흥구 구갈동 234번지 일원,37.2756372,127.1163211,9371.70831226736,853.4,2344.32422635931,0.0021014755810218,1.0,56.71221046052631
7949,경기도 부천시 상동 526-1,37.51190856,126.7552221,1456.89242920118,248.0,13843.140610961276,0.0066403394716398,1.0,59.87148169956141
10154,경기도 성남시 수정구 단대동 40-5 정성빌라 앞,37.4586738,127.1554988,9532.20922668131,704.0,6556.211883232196,0.0037103771535982,1.0,58.00539159649123
2232,경기도 광명시 소하동 881-36번지,37.43866139,126.8811974,2189.89899718691,464.0,3113.250484949406,0.0047388140253131,1.0,57.648186646929815
30768,경기도 파주시 야당동 24-3,37.72437038,126.7717947,2681.95737538687,9.0,10100.313173745855,0.000853660632749,1.0,59.6050870745614
32080,경기도 평택시 서정동 891-1,37.06320781,127.0570096,8573.03307511764,306.0,6082.125918656703,0.0041223061444835,1.0,61.39447068640351
912,경기도 고양시 덕양구 행신동 963,37.62258261,126.8447636,4128.96787182026,384.0,1757.1692059624454,0.0037433495921542,1.0,60.47193715570175
17184,경기도 안산시 상록구 월피동 441-19,37.32955995,126.8509957,5500.05312140891,693.0,6761.157356478812,0.0034015537206257,1.0,59.82595790570176
15058,경기도 시흥시 장곡동 812-3,37.377802,126.7833284,1591.26660757819,520.0,77.052524262322,0.0033371368118475,2.0,60.55128126535087
19738,경기도 안양시 동안구 호계3동 975,37.36661083,126.9574433,2041.18385109577,2367.0,13056.767795605025,0.0019763622479499,2.0,59.38601946491228
3790,경기도 군포시 금정동 741,37.36419596,126.9440334,829.201640123405,1516.0,6338.1671820388,0.0027488985667373,1.0,58.19809527192983
24706,경기도 용인시 기흥구 구갈동 234번지 일원,37.273814,127.120937,8951.91086035063,1933.0,1816.294040397944,0.0029779300060696,1.0,57.3276685131579
16297,경기도 안산시 단원구 원곡동 847,37.3268427,126.8027435,5992.41559362086,1376.0,4415.2780461563625,0.0024818894022888,0.8,58.1250977368421
27978,경기도 의정부시 의정부동 599-2,37.73230135,127.0412399,2856.10693164729,4.0,11291.817050073194,0.0033392027051178,0.8,57.07469655701754
27416,경기도 의정부시 녹양동 산91-2,37.7566761,127.0329081,4322.05993126145,99.0,3380.730300844589,0.00395892633391,1.0,57.69156207017544
2349,경기도 광명시 철산동 270번지,37.47570969,126.868033,773.4280594104748,488.0,9760.715464656028,0.0037876902775861,0.8,56.42447622807018
6355,경기도 남양주시 진건읍 사능리 652-14번지,37.65596813,127.1769817,3362.01617328084,2207.0,739.3649064560423,0.0048738968142052,0.8,56.3688775614035
19248,경기도 안양시 동안구 관양2동 1478,37.40291481,126.972286,1657.41053244963,1412.6,9965.59975367198,0.0086107658690823,1.0,57.60319991885965
3738,경기도 군포시 금정동 183-4,37.36581301,126.9467205,1118.80938799489,514.0,4339.73166051719,0.0019921954079439,2.0,57.78981373245614
14005,경기도 수원시 팔달구 매산로2가 72-4,37.26672299,127.0055863,9224.02757821927,800.6,4027.175987138106,0.0023007363386885,1.0,56.65039728289474
5537,경기도 김포시 풍무동 19-4 (신풍초등학교),37.612256,126.727039,3163.60635859627,1129.0,3606.0146874061625,0.0048194923317121,2.0,57.62272996491228
8239,경기도 부천시 송내동 400-15,37.48339145,126.7612059,1920.95460114597,1843.4,12558.90657410408,0.0077812910765273,1.0,57.85410012061404
10184,경기도 성남시 수정구 복정동 648번지 기왓골어린이공원,37.464201,127.1278924,11152.5394881792,1635.0,3591.20673156398,0.0033093000429998,1.0,56.22582474780702
7402,경기도 동두천시 지행동 358번지,37.88831212,127.0590231,8745.68547757033,1.0,8369.242996929297,0.0025693551490887,1.0,57.32269673245614
2116,경기도 광명시 광명동165,37.4794632,126.8462415,1687.24545487728,164.0,4337.872232923873,0.0071722665036142,1.0,59.09415827192983
7938,경기도 부천시 상동 508-9,37.51359675,126.7513695,1802.18355868105,394.0,10415.484690983536,0.0027623698035513,1.0,59.5108757631579
15984,경기도 안산시 단원구 신길동 1431,37.33447716,126.7626358,6471.09623271539,675.0,2216.118978252154,0.0043492329973453,1.4,58.512899103070175
31859,경기도 평택시 비전동 740-1,36.99387679,127.0969361,1258.62179445558,1915.0,8451.012298481111,0.0027255841610112,2.0,61.86194814372806
27800,경기도 의정부시 의정부동 185-1,37.74349774,127.0511137,2195.84570855203,23.0,6382.068472884456,0.0023965797849908,2.0,60.398217407894734
4010,경기도 군포시 당동 952-2,37.3502974,126.9403534,1320.97619390888,896.0,5673.021074582089,0.0036006436625468,2.0,58.82484298903508
3947,경기도 군포시 당동 791-10,37.34901307,126.941334,1484.83763202818,1417.0,5628.032442263687,0.002476249100808,2.0,58.41312736622807
33206,경기도 평택시 합정동 936-3,36.98690243,127.1031083,773.4280594104748,129.0,5667.869956042737,0.0021892643445874,2.0,59.82337702412281
34603,경기도 화성시 남양읍 남양리 2282,37.20656036,126.819516,1255.27016852886,85.4,932.9198639601744,0.00401826487232,1.0,58.54023863157894
8825,경기도 부천시 옥길동 740-2,37.46427346,126.8259847,3468.62328656082,1726.0,6827.2115056634175,0.0022357740556815,2.0,59.29845775438597
27894,경기도 의정부시 의정부동 409-22,37.74536244,127.0414771,3055.16643573856,294.0,10397.757084790035,0.0030323360651441,1.0,57.62523680921052
15382,경기도 시흥시 하중동 863,37.3929173,126.8069086,2563.85206281398,842.0,77.052524262322,0.0020405094443095,1.0,58.34051613596492
5212,경기도 김포시 운양동 1413 (전원월드4단지아파트 401동 인근),37.647097,126.680422,781.729025795845,1187.0,1934.6106244743075,0.0023126506053281,1.0,58.60832724780703
2326,경기도 광명시 철산동 162번지,37.48133433,126.8647056,773.4280594104748,1823.0,11033.222383212726,0.0030995954237268,1.0,57.8886862763158
13207,경기도 수원시 장안구 영화동 428-14,37.28819144,127.0092703,7203.07176037311,1368.6,2907.2455088823167,0.0017068503004371,1.0,59.222291875
13200,경기도 수원시 장안구 영화동 415-3,37.29011948,127.0090435,7008.10173734094,775.0,2832.573854579954,0.0016692898240619,1.2,57.18926392982456
9533,경기도 성남시 분당구 삼평동 653번지 사거리 / 655번지 맞은편  (변경전 : 백현동 655-1번지),37.3969854,127.1120954,10823.1393360782,1808.0,3063.25984789874,0.0020921499719154,2.0,61.11391946710527
10753,경기도 성남시 중원구 성남동 2566번지 나들이어린이놀이터,37.4349769,127.1420629,10362.8581210355,2210.0,10839.4894769545,0.007021787523588,1.0,59.17007291885966
8940,경기도 부천시 원종동 152-9,37.52283061,126.7975173,3881.90470037282,1136.0,1568.7612737505026,0.0018640106190986,1.0,56.19463667763158
6194,경기도 남양주시 와부읍 도곡리 1024-2번지,37.57909041,127.2239987,3248.50356063295,975.0,10893.930871246106,0.0035680540428236,1.0,57.14269071929824
20253,경기도 안양시 만안구 안양5동 389-5,37.39310135,126.9266933,2677.71036128605,1031.8,9494.76681510281,0.005766780170376,1.0,59.46389550877193
16537,경기도 안산시 상록구 본오동 682-7,37.28553874,126.8663779,2522.11173318078,51.0,5547.559862690822,0.0019371355166897,0.6,57.29498744736842
6880,경기도 남양주시 화도읍 마석우리 548번지,37.65761288,127.300636,7607.14910126032,1000.0,2365.606685772775,0.0026896608898519,2.0,59.06959068201754
1244,경기도 고양시 일산동구 중산동 1573-2,37.69151312,126.7815678,1432.38595213746,899.0,4141.321797486203,0.0055267617130099,1.0,58.94171282456141
30061,경기도 파주시 금촌동 800-8,37.7552191,126.7779798,784.577925160209,891.0,2726.5321475226137,0.0030449617072884,1.0,61.69325828728071
38066,경기도 화성시 진안동 874-1,37.21361541,127.0398234,5047.39691787773,199.0,10751.946616191535,0.0028513140202682,1.2,60.28565882017544
8294,경기도 부천시 송내동 680-3,37.47498652,126.7704055,2904.76350172274,125.0,4228.977688866951,0.00409894196629,1.0,61.30557920614036
20149,경기도 안양시 만안구 안양2동 817-10,37.41260584,126.9135947,2723.22200414164,1081.0,5354.64927422949,0.0014410929713385,1.0,59.014688438596494
17256,경기도 안산시 상록구 월피동 532-4,37.33656103,126.844327,6185.737573187,701.0,5401.696270251191,0.0052159903743607,1.0,58.41124118859649
27412,경기도 의정부시 녹양동 산 1-2 가금교,37.75234368,127.047439,3010.09171705898,820.0,8242.265794515297,0.0020986498932671,1.0,58.229536078947376
27132,경기도 의정부시 가능동 679,37.74723408,127.032961,3828.92502894061,395.0,4342.906168891892,0.0036174820363563,2.0,59.25922186403509
1639,경기도 과천시 과천동 539-3도 남태령지하차도3 (상행1),37.44660829,126.9958868,912.160186578149,1975.0,6112.894482586356,0.0009046224387352,1.0,57.159304298245615
32160,경기도 평택시 세교동 555-1,37.00180123,127.0860292,2559.82242509845,1328.0,7338.918494941632,0.0037542956638003,1.0,58.455927469298246
38088,경기도 화성시 진안동 912-2,37.21732633,127.0437457,5386.93936512639,388.0,6892.505787674841,0.0033759591817665,1.0,58.79322208552632
2190,경기도 광명시 소하동 1356 신촌삼거리,37.4515718,126.8885898,2657.91403944054,1308.0,2711.290364334167,0.0034898792271004,1.0,59.53455092982456
7679,경기도 부천시 괴안동 88-18,37.47829598,126.8083848,4668.99223583681,1254.0,4320.264483378784,0.003038976043787,1.0,58.32703823464912
517,경기도 고양시 덕양구 고양동 584,37.71024089,126.9060893,8187.6009760748,1556.0,1989.5117978532312,0.0022915893230305,1.0,58.11609850000001
12432,경기도 수원시 영통구 영통동 1023-1,37.24841847,127.0760435,9018.43799097476,990.0,2190.3302893978143,0.0066071327584355,2.0,59.84537780921053
34175,경기도 하남시 신장동 430-65,37.53864873,127.2086749,773.4280594104748,1026.0,226.5865075197649,0.002173100177896,2.0,56.08156468274122
10918,경기도 수원시 권선구 고색동 1187,37.2552918,126.972312,9901.81954174614,868.0,11761.128596959574,0.001845257836944,1.0,56.55197852631578
5435,경기도 김포시 통진읍 고정리 780-1 (연락골고추장추어탕 인근),37.628282,126.700992,2919.23932660161,691.0,2678.624252988732,0.0087096690222165,1.0,58.41531055263158
20183,경기도 안양시 만안구 안양3동 1219-88,37.3953791,126.913277,1892.31948573074,1733.0,8775.379285043526,0.0055137251416054,1.0,61.706185905701744
10837,경기도 성남시 중원구 중앙동 1322번지,37.438931,127.146371,9989.53204557132,1045.0,11769.8758675275,0.0033714707608845,1.0,58.973696285087726
6869,경기도 남양주시 화도읍 마석우리 374-4,37.65983652,127.3013248,7458.51439615881,1000.0,2178.250061630265,0.0017423848083926,1.0,59.016964574561406
14493,경기도 수원시 팔달구 화서동 15-1,37.28610961,127.0050308,7229.82906973895,1154.6,3773.264324164524,0.0047428249837416,1.0,59.32128433991228
7708,경기도 부천시 내동 328,37.52037051,126.787084,3019.84326763409,643.6,3335.530902629512,0.0037179902368315,1.0,56.5394960986842
9738,경기도 성남시 분당구 야탑3동 192-1번지,37.405935,127.1555488,9732.9246254275,100.0,7063.740255213838,0.0032499881634682,2.0,57.52691884649122
6581,경기도 남양주시 퇴계원읍 퇴계원리 183-6번지,37.6496339,127.1446457,1801.7144905873,426.0,13131.08837003961,0.0023668754200975,0.6,56.08156468274122
27804,경기도 의정부시 의정부동 191-7,37.74210857,127.0484548,2350.99521220465,23.0,9403.901739696234,0.002735936965704,1.0,57.99357389254385
3629,경기도 구리시 인창동 514-2,37.60691939,127.1352028,3307.57709130904,2064.2,2972.393361823365,0.00442975939475,1.0,59.68243174780703
10773,경기도 성남시 중원구 성남동 4116-6번지,37.429841,127.130991,11358.8450338925,770.6,10893.661049283864,0.0017933290921882,0.6,58.58149577192982
20931,경기도 양주시 덕정동 350-242,37.8448,127.061785,6451.45528409424,725.8,7103.649468097899,0.0032776125151333,1.0,57.79380938157896
11755,경기도 수원시 권선구 오목천동 242-13,37.24501857,126.967064,11037.7236188527,642.0,8580.101057902766,0.0045490520669303,1.0,56.08156468274122
9193,경기도 부천시 중동 1137-4,37.5012893,126.7752846,1035.67019724424,634.4,7132.9874498537,0.0025608475920379,1.0,57.56328834429824
4046,경기도 군포시 당정동 11-5,37.36419373,126.9577848,2013.42416398335,508.6,3278.467393473193,0.001895864562754,1.0,61.59231216228071
792,경기도 고양시 덕양구 토당동 37-15,37.62563274,126.8229851,3685.31298255154,1622.0,3090.259545479912,0.0033407112407879,1.0,60.99449561403509
11177,경기도 수원시 권선구 권선동 1013-24,37.25981748,127.0297199,10246.8763339667,2335.0,2586.20726731525,0.0023857160300303,2.0,59.75867639254386
26895,경기도 의왕시 청계동 976번지 휴먼시아청계마을,37.39068608,126.9979598,3657.84983069929,233.0,7094.514073915914,0.0050784269587574,1.0,59.529028973684206
6528,경기도 남양주시 진접읍 장현리 49-16,37.73104355,127.1955003,4085.9849880277,461.0,427.3186317057966,0.0030109898563771,1.0,57.08171741885965
4200,경기도 군포시 부곡동 1110-1,37.32340809,126.9401127,3454.56649309582,364.0,7470.593946457286,0.0026157043097482,1.0,57.03334302850877
24167,경기도 오산시 고현동 85,37.133327,127.084591,2010.29220901023,64.0,3375.138304792324,0.0039470404910202,1.0,57.54145153728069
8404,경기도 부천시 심곡동 368-32,37.49140982,126.7825518,1961.21620996444,2144.8,10358.430836446609,0.0021120001357373,1.0,57.5034972763158
34165,경기도 하남시 신장동 427-224,37.53928967,127.206366,773.4280594104748,1920.0,214.98827414146328,0.0024266027500405,1.0,56.92654022149122
8306,경기도 부천시 송내동 704-9,37.48517115,126.7518229,2003.5562351061,2105.0,10071.799944962306,0.008813690203953,2.0,56.928396526315794
3945,경기도 군포시 당동 790-19,37.35025644,126.9412231,1353.20673978266,754.0,6156.460580846418,0.0041233989854878,2.0,57.53992952850878
11021,경기도 수원시 권선구 곡반정동 503-15,37.24585326,127.0338771,8655.45694358203,2305.0,3446.640590345171,0.0053991908149892,1.0,59.767484464912286
26454,경기도 의왕시 고천동 286-5,37.34837878,126.9736141,773.4280594104748,724.2,2031.0217066334765,0.0049848937554408,0.2,58.523850388157896
27034,경기도 의정부시 가능동 15-33,37.75552173,127.0441616,3459.29452288996,570.0,6354.279824159622,0.0014838208663709,2.0,58.75673352631578
27436,경기도 의정부시 민락동 710-3,37.73976168,127.0920069,1721.07664750028,324.0,3228.1553499088504,0.0033120354876317,1.0,57.36709524561404
23602,경기도 여주시 홍문동 59-31,37.29490007,127.6355165,2918.04866605884,933.0,1189.7183165316226,0.0023055273872053,0.8,57.86131859429824
34150,경기도 하남시 신장동 147-26,37.54107116,127.2129222,773.4280594104748,1501.0,261.3124033305604,0.002732099605519,0.2,56.831619269736834
26717,경기도 의왕시 오전동 402-2번지,37.35106255,126.981281,1323.67935054071,704.0,1603.5024894592812,0.0046549143925326,1.0,57.36652218201755
31809,경기도 평택시 비전동 1123-1,37.0019947,127.1138913,1649.22496203055,707.0,3254.1178939852284,0.0018743597336676,1.0,61.86194814372806
8289,경기도 부천시 송내동 668-1,37.48811873,126.7424365,2327.62098954152,332.0,9266.004833629544,0.003255491278737,1.0,61.37115442324561
22762,경기도 양평군 용문면 다문리 697-30도,37.48403838,127.5908907,7053.24450054202,137.0,4285.204501837003,0.0045598539984756,1.0,59.01976036842105
26553,경기도 의왕시 내손동 743번지,37.38054323,126.9728711,2088.6120118826,1049.0,6268.209725590673,0.0025319957179304,2.0,58.59125461622806
7776,경기도 부천시 도당동 4,37.51371598,126.7777556,1919.11428679621,1074.0,7639.913553314888,0.0022090101515406,2.0,60.013604910087714
1163,경기도 고양시 일산동구 장항동 736,37.66446212,126.765577,4740.29958986677,663.0,8032.001290587164,0.0029942532125395,2.0,57.82062312719298
15332,경기도 시흥시 조남동 174-15,37.3829989,126.8580948,3284.48489628721,1614.0,514.0651774075532,0.0022743096401729,1.0,59.472209712719305
9238,경기도 부천시 중동 1187-8,37.49506601,126.7702428,849.582063210952,1016.0,8851.609450679935,0.0039365058190318,1.0,57.629839478070174
15082,경기도 시흥시 정왕1동 1412-7,37.340499,126.7511399,6137.94302043086,1937.0,4274.217748507263,0.0068082848241214,1.0,59.31406543640351
27202,경기도 의정부시 가능동2-1,37.74795897,127.05103,2459.86695789613,26.0,7221.48889736666,0.0024845707307252,1.0,59.42836406140351
7970,경기도 부천시 상동 541-3,37.50546729,126.7543244,981.746109925823,762.6,10452.426422073037,0.001974545597486,0.6,59.05550898464912
37835,경기도 화성시 장지동 910-430,37.16269543,127.0961687,3806.02968842223,2.0,806.1361325975367,0.0071783571972282,1.0,60.6739648004386
4405,경기도 군포시 산본동 45-1,37.37576683,126.9396221,1628.42386283827,859.0,7232.47649108519,0.0062989182755247,1.0,60.326568447368416
28181,경기도 의정부시 호원동 460-4,37.70869722,127.0486576,3630.49662733989,1580.0,10111.73559067117,0.0021862021231777,1.0,58.730118467105264
23974,경기도 연천군 전곡읍 전곡리 302-18,38.02464054,127.0679526,3866.04272633603,2014.0,246.14214490573767,0.0019786108531652,1.0,59.84617567105264
16648,경기도 안산시 상록구 본오동 862-14,37.292802,126.8660236,2768.94701359506,128.0,9516.45326359779,0.0043642443993375,0.4,59.83049631578947
7566,경기도 부천시 고강동 404,37.52421681,126.8218696,5778.1161067392,840.0,2300.896155238316,0.0026319910445433,1.0,57.75342671929824
11035,경기도 수원시 권선구 곡반정동 527-5,37.24306009,127.0318873,8388.72482335225,136.0,2526.4230473179705,0.0053137000769294,1.0,59.37557300877193
7780,경기도 부천시 도당동 48-4,37.51711445,126.7882126,2844.1779646159,1021.0,4122.29688540244,0.0072642515998605,1.0,60.39898754605262
31818,경기도 평택시 비전동 225-25,36.99293382,127.1060438,773.4280594104748,1553.0,4970.894958629508,0.003653755803484,0.8,60.76764560087719
15426,경기도 안산시 단원구 고잔동 537-4,37.31729234,126.8363958,4030.71878631641,299.0,4190.5266822319845,0.0019617174186901,2.0,56.7742063135965
15837,경기도 안산시 단원구 선부동 1137-4,37.34405015,126.8135694,6134.63502018696,416.0,1228.8778456374191,0.0057906275198464,1.0,58.039027947368425
3800,경기도 군포시 금정동 748-41,37.35995031,126.9439969,789.125278407677,1155.0,5811.265972518619,0.0039714254118483,2.0,57.26884025219297
4944,경기도 김포시 사우동 407-43 (세진맨션앞),37.614364,126.725936,3304.79427753397,2295.0,2848.1838905089053,0.0059239621702581,1.0,58.05591543201754
16105,경기도 안산시 단원구 와동 762-2,37.34049943,126.8259357,6694.33715138806,798.0,2208.6881412251187,0.0062464242861336,1.0,57.518413263157896
11061,경기도 수원시 권선구 곡반정동 585-3,37.23548261,127.025914,7717.4459804158,1129.0,1416.9110224205774,0.0036730490987924,2.0,59.11997407236842
2186,경기도 광명시 소하동 1343번지,37.44725354,126.8816128,2000.29268203197,1087.4,2615.9470197204,0.0018733736780026,0.6,58.36213351754386
27862,경기도 의정부시 의정부동 310-3 예술의전당앞,37.73248474,127.0355415,3354.58570849598,145.0,11385.84757817446,0.0047259008898631,2.0,57.35882660307017
15160,경기도 시흥시 정왕3동 1983-7,37.3462232,126.6917018,9144.85950836255,454.0,1289.5587156096865,0.0065482005889845,1.0,59.03890765570175
10009,경기도 성남시 분당구 판교동 515-16번지 E8-1블럭 내 보행자 출입로 앞 사거리,37.390889,127.096792,9983.6287801423,1465.0,6767.680233531454,0.0023102364626438,1.0,58.36456718421053
10643,경기도 성남시 중원구 도촌동 546,37.4153649,127.1503349,9882.89368916003,552.0,8789.176704391473,0.0025680109916477,0.4,58.28308373026316
1890,경기도 광명시 광명5동 776-27,37.47726425,126.8458504,1727.08657779468,547.0,2569.345198374671,0.0055885414666542,2.0,57.72563630482456
8325,경기도 부천시 심곡동 132-27,37.48647029,126.7884922,2701.82885268399,678.0,6110.665116510961,0.0033240666826447,2.0,57.631854603070174
19667,경기도 안양시 동안구 호계1동 995-31,37.37293692,126.9590693,2388.92328025646,1487.6,12941.837301954249,0.0030077154201367,0.2,56.08156468274122
2443,경기도 광명시 하안4동 30-6 무궁화 어린이공원,37.46462731,126.8796515,2012.01531503444,986.0,8459.90811856811,0.0033944326186404,0.4,56.88469078289474
27944,경기도 의정부시 의정부동 537-9,37.73384227,127.0365433,3258.16526357847,570.0,13205.12041880832,0.0033591665673971,2.0,56.62580680482455
26468,경기도 의왕시 고천동 411-1번지,37.35114247,126.9629485,900.934561505923,702.0,3555.3819030929185,0.0022063027210681,1.0,58.85061817105263
26961,경기도 의왕시 포일동 673-6,37.39737239,126.9835603,2382.76757515968,1840.0,6742.333394356632,0.0031613063677413,1.0,60.5229856995614
15376,경기도 시흥시 하중동 819-5,37.4004919,126.7998302,2174.66723778289,1214.0,353.9394390442519,0.0009587242315611,0.8,57.81722590131579
10501,경기도 성남시 수정구 태평4동 7314-4번지 부근,37.4451063,127.1401811,10584.6246845744,643.4,3754.9160501919214,0.0038355463338642,1.0,58.37465129824562
36600,경기도 화성시 송동 산41-12,37.16508298,127.0964419,3911.58959264318,2.0,814.1776392800942,0.0066815307168152,1.0,60.8454051622807
4096,경기도 군포시 당정동 982-1,37.34720035,126.956612,1120.33719455984,1439.0,4810.282096823549,0.005353943893184,0.4,57.50004782675439
19287,경기도 안양시 동안구 관양2동 210-3,37.39627601,126.9793921,2001.75388479955,994.2,8202.066933587794,0.0079151119256802,1.0,58.5908555241228
14697,경기도 시흥시 계수동 83-1,37.4584316,126.8138809,4174.21615397999,210.0,6072.5551549637485,0.0019249342492243,1.0,60.257506063596495
11098,경기도 수원시 권선구 구운동 481-2,37.27913994,126.9752854,7273.92018529441,665.0,3808.083270869538,0.0033298746520228,2.0,59.39787391885966
7101,경기도 동두천시 보산동 429-10번지,37.91459942,127.0562921,8489.21985950785,6.0,11486.433744213862,0.0019354129495359,1.0,57.56781794298246
11813,경기도 수원시 권선구 오목천동 953,37.24655121,126.9684643,10866.6585683809,208.0,9072.128151453991,0.0036372030038816,1.0,57.28332662938597
38058,경기도 화성시 진안동 861-1,37.21446514,127.0364999,5212.79483888485,199.0,11427.766132955769,0.0037521549986866,1.4,57.313852125
26896,경기도 의왕시 청계동 977,37.39034129,126.9978929,3656.48730283012,233.0,7042.95618692759,0.0043438548415641,1.0,58.42049885745614
15266,경기도 시흥시 정왕본동 1207-1,37.3466709,126.746921,5684.21886182235,451.0,9229.327644586188,0.0022224273290854,1.0,59.26126170394737
26606,경기도 의왕시 삼동 150-20,37.31650241,126.950621,3498.82363493841,576.0,11191.743800024156,0.0087875948805511,0.4,57.9627306491228
33103,경기도 평택시 평택동 60-1,36.99312751,127.0861405,2104.41134090806,513.8,4114.241280535034,0.001672112418847,0.4,57.88431657236843
12158,경기도 수원시 영통구 매탄동 1154,37.25934899,127.0389476,10064.2341176356,1389.0,4207.564025892863,0.0022728227719088,1.0,58.031477326754384
33023,경기도 평택시 통복동 121-2,36.99474011,127.0807262,2617.45522817586,254.6,10238.280684160924,0.0016694409481872,1.0,58.87199624780702
8920,경기도 부천시 원미동 99-1,37.49366102,126.7881525,2302.88687088924,983.6,5554.3193788161325,0.004502117751767,1.0,59.5585093508772
8041,경기도 부천시 소사동 24-41,37.48497615,126.7963675,3375.78581526264,867.0,7747.357150859301,0.0017939219294016,1.0,59.36425411622807
19145,경기도 안양시 동안구 갈산동 1118,37.37614204,126.9661732,2185.63561560946,1216.0,5334.042781301752,0.0063490816588153,1.0,59.02962849561402
1349,경기도 고양시 일산서구 대화동 2238,37.67446225,126.748021,4848.20497014128,82.8,6474.992205909033,0.0047752115489584,0.6,59.30947061184211
15336,경기도 시흥시 조남동 조남동 171-53,37.3863889,126.8599627,2991.38547507573,1320.0,566.8496168703334,0.008579546621338,2.0,61.23737453728069
16708,경기도 안산시 상록구 본오동 904-1,37.29139891,126.8632375,2477.82595234973,128.0,8154.5452209452915,0.007616179977449,1.0,59.02589289035088
978,경기도 고양시 덕양구 화정동 916-9,37.6395475,126.8315623,2069.74544844655,14.8,7375.377209128186,0.0047593459655822,1.0,58.26933923026317
8970,경기도 부천시 원종동 232-6,37.52706087,126.8056374,4735.1319613274,1304.8,2140.449397618728,0.0056266880687258,2.0,58.72809098464912
13813,경기도 수원시 팔달구 고등동 42-134,37.27896992,127.007029,8020.5554918866,731.8,1130.7564425984694,0.0035816572113581,1.0,56.59144469517544
12431,경기도 수원시 영통구 영통동 1022-4,37.24849719,127.0778923,9065.98692246881,990.0,2246.9074992530022,0.0042774464859096,2.0,59.18783219517544
17122,경기도 안산시 상록구 수암동 177,37.36498542,126.8781102,3567.54388319274,1910.0,2431.556455586489,0.0043211277595146,2.0,59.8287731491228
9312,경기도 부천시 춘의동 125-1,37.50572879,126.783467,1845.95372750913,1505.0,12045.152079631782,0.0069723678337563,1.0,61.075995508771925
16417,경기도 안산시 단원구 초지동 740-1번지,37.30585667,126.816309,3387.2856562452,224.0,4274.060891693042,0.0032526359837459,1.0,58.790089953947366
24185,경기도 오산시 궐동 621-1번지,37.1612145,127.0564966,958.237964175744,1146.0,2248.4189518634453,0.0080416398334267,2.0,58.11689679166666
16737,경기도 안산시 상록구 본오동 961-2,37.2868693,126.8590339,1933.24674534637,173.0,5626.649142059039,0.005139407224405,1.0,57.3628816754386
27462,경기도 의정부시 민락동 784-1,37.74496096,127.0918683,1972.33734210152,481.0,3193.203887170113,0.0063621562631423,1.0,58.02867798684211
7290,경기도 동두천시 생연동 703-40번지,37.90036158,127.0548532,9535.4572616859,50.0,9240.850599069716,0.0025114065943134,2.0,56.08156468274122
30057,경기도 파주시 금촌동 789-1,37.7556226,126.7754536,833.358655748444,891.0,3217.548855555792,0.0026708643046121,1.0,60.58863108552632
1254,경기도 고양시 일산동구 중산동 1656-6,37.68651362,126.7820135,1908.02917037856,705.0,5099.359233771591,0.0048533947394946,0.4,58.81978234210526
832,경기도 고양시 덕양구 행신동 1002,37.62469109,126.8319816,3718.4550603153,622.0,2064.453498023061,0.0022144897273181,2.0,58.30321692763158
19672,경기도 안양시 동안구 호계2동 168-12,37.3790264,126.9421159,2035.94834103457,201.0,10660.330443305233,0.0020475918792906,1.0,59.7543261381579
18847,경기도 안성시 인지동 372-2,37.0047725,127.2705113,1811.04177487987,900.0,557.9421497026245,0.0023815639578856,2.0,60.83599479824561
19903,경기도 안양시 만안구 석수1동 177-15,37.41664929,126.9128512,3016.81804390187,1106.4,9416.058894857177,0.0029690010917912,1.0,61.86194814372806
27970,경기도 의정부시 의정부동 584-7,37.7320669,127.0461252,2431.13805144645,1006.0,9163.883309100396,0.0025791938925276,0.4,57.22893308333333
24468,경기도 오산시 오산동 540-33,37.148748,127.067393,992.93359090108,249.4,7899.979930525887,0.0049803146049681,1.0,60.80600228508772
24739,경기도 용인시 기흥구 구갈동 396 샛별유치원,37.279483,127.113633,9645.96391022743,850.0,3796.7350570036833,0.0042002692404709,0.2,57.7415808618421
17049,경기도 안산시 상록구 사동 1573,37.30202267,126.8395653,2334.23747019627,194.0,4187.43454942674,0.0035189661025328,1.0,58.589195649122814
4147,경기도 군포시 대야미동 674,37.33197275,126.9161862,3687.45810536653,55.0,7357.534640562096,0.0031821017961439,2.0,57.58475281578946
30192,경기도 파주시 대원리 197-2,37.72593251,126.8199524,3694.32863383761,903.0,956.9748353136696,0.0059262657215357,2.0,57.89322683552631
26721,경기도 의왕시 오전동 67-3,37.36061384,126.9665971,1798.33093711143,482.0,2630.879487754207,0.0026133753626589,1.0,58.07722033114036
27613,경기도 의정부시 신곡동 493-3,37.74119235,127.0612178,1293.88321469263,231.0,9478.63141810485,0.0076360568068081,1.0,58.21494364254386
4238,경기도 군포시 부곡동 617-9,37.32336228,126.9418625,3345.74277837165,637.0,9126.74642780834,0.0022800061064702,1.0,57.36565210964913
8389,경기도 부천시 심곡동 351,37.48749976,126.775463,1792.28957652915,1450.0,9492.75206617135,0.0020045988941097,1.0,61.73867387280701
35609,경기도 화성시 병점동 826-8,37.21058088,127.039168,4734.53346335426,1590.0,466.5885701650469,0.0031845397388549,2.0,61.16494791666666
14787,경기도 시흥시 대야동 457-12,37.4474594,126.7886059,6226.77728822076,11.0,1457.1849900234272,0.0073010644387366,1.0,60.69998971052631
919,경기도 고양시 덕양구 행신동 999-1,37.62346972,126.8347369,3865.94032926456,706.0,4202.225626298923,0.0042196216022161,1.0,60.089490651315785
9683,경기도 성남시 분당구 수내1동 8-8번지 편의점 앞,37.3795201,127.115357,12050.7923106955,1447.0,8743.813360398086,0.0027136089554342,1.0,58.07823181578947
20049,경기도 안양시 만안구 석수동   172-19,37.41707511,126.912534,3037.25637645887,1106.4,10461.492322418671,0.0035114536994936,1.0,58.18453796052633
5668,경기도 남양주시 금곡동 699-25,37.63483116,127.2000326,4362.30238706568,1752.0,1307.3703716563211,0.0013275074285239,1.0,57.39055184649122
4885,경기도 김포시 북변동 821,37.622276,126.720478,4042.45662165603,174.4,7393.13341103387,0.0040673125891035,0.4,57.86698013596491
23368,경기도 여주시 상동 218-4,37.29702515,127.6389658,3131.76798933643,718.0,961.4826907634252,0.0029981288243451,1.0,58.99249068640352
27482,경기도 의정부시 민락동 824-7,37.74628888,127.0988705,2573.22359530997,1466.0,2767.846941285281,0.0052735273241029,1.0,59.17499774122807
10218,경기도 성남시 수정구 산성동 219,37.4577209,127.1539218,9638.74940464832,753.0,9455.622317114725,0.0029096523782053,1.0,56.08156468274122
8148,경기도 부천시 소사본동 276-16,37.4726436,126.800577,4506.4260143303,1172.4,4774.208761931419,0.0031588123416238,1.0,56.08156468274122
2578,경기도 광주시 곤지암읍 곤지암리 448-3공,37.35090557,127.3374199,11644.7521748271,1695.0,2020.757018377608,0.0062102924229843,1.0,58.80319616447368
17945,경기도 안성시 낙원동 68-25 (노인복지회관 옆),37.00438299,127.2753747,2241.12064803822,867.0,543.910392676011,0.0029959960871505,1.0,58.18184962280703
11230,경기도 수원시 권선구 권선동 1239,37.25363257,127.0382757,9442.94650455756,1527.0,12308.7713799626,0.0053148493256422,2.0,58.716061377192986
6661,경기도 남양주시 평내동 585-4,37.64694527,127.2367205,7730.47713809516,1027.0,4093.229679587344,0.0052855785300256,0.6,58.89457256798245
28241,경기도 이천시 관고동 15-5번지,37.281368,127.438678,6356.26447964687,2319.0,1011.5085991340336,0.0024450037105661,1.0,58.623599559210525
7982,경기도 부천시 상동 550-1,37.50366,126.7493304,1306.21437893746,663.0,9468.379010911856,0.0041654862948608,1.6,58.35860648464912
16988,경기도 안산시 상록구 사동 1410-8,37.28458755,126.8505361,1138.80779698863,981.0,4313.036116592038,0.0031567397840902,2.0,58.21655956798246
34195,경기도 하남시 신장동 505,37.5387337,127.2100304,773.4280594104748,1026.0,235.0088025850718,0.0021753416318267,1.0,59.29846033333333
26762,경기도 의왕시 왕곡동 294-4번지 한울빌라,37.34700979,126.9780339,863.98087770213,373.0,1538.3287538139557,0.003250799769272,2.0,58.1954529254386
16622,경기도 안산시 상록구 본오동 829,37.29307376,126.8713466,3204.99650849525,705.0,9112.572359842072,0.0059927555874721,2.0,57.26984367763157
3636,경기도 구리시 인창동 576-20,37.6050961,127.1340955,3246.74025728227,2274.0,2821.793239716308,0.0040926851544057,1.0,56.503764782894734
7568,경기도 부천시 고강동 410,37.52743322,126.8231986,6050.32526571802,579.4,1968.916586795252,0.003614875438034,1.0,58.66184545614036
1838,경기도 과천시 중앙동 33-13번지 (1단지 옆),37.43149477,126.9905793,1437.52819130071,33.0,7358.950157846664,0.0044435646977427,1.0,57.85660148464912
16813,경기도 안산시 상록구 부곡동 663-4,37.33372557,126.8628352,6234.44134651673,839.0,2346.380646346588,0.0031147307597343,0.4,58.11699554385965
1435,경기도 고양시 일산서구 일산동 1558,37.69268363,126.7764283,1630.26990998552,13.0,4673.349056705992,0.0036129599292696,1.0,58.44422796710526
20495,경기도 안양시 만안구 안양동 389-20,37.39319044,126.926478,2696.22927437039,487.8,10318.15753639016,0.0055425220861465,1.0,58.97266997149122
27948,경기도 의정부시 의정부동 549-5,37.73378337,127.0399143,2961.5465759057,745.0,12913.677561017808,0.0027196448416451,0.6,59.39967939692982
27454,경기도 의정부시 민락동 756-6,37.73619616,127.0904829,1504.41378042898,275.0,3330.9496253014745,0.0038967283283572,0.4,57.942725754385954
27916,경기도 의정부시 의정부동 470,37.73996034,127.0431234,2737.0678276011,734.0,9318.324716642292,0.0023952840170006,0.8,57.95502357236842
13354,경기도 수원시 장안구 정자동 32-7,37.29507721,127.0004477,6158.50182964314,1945.0,3358.791768817457,0.0038701989802748,1.0,56.75822629605264
20254,경기도 안양시 만안구 안양5동 391-1,37.39429096,126.9285144,2512.64062949823,743.2,9086.04187753877,0.0040137602105857,1.0,57.10813830482456
1001,경기도 고양시 덕양구 화정동 983-1,37.63230314,126.8311824,2873.26060038943,904.2,1497.9103948893528,0.0022532529971957,2.0,57.65711635964913
14984,경기도 시흥시 신천동 884-5,37.4320497,126.7922202,4671.54591113093,2157.0,1026.3777325712515,0.0070845276951731,2.0,59.63494021710527
35420,경기도 화성시 반월동 269,37.22707331,127.0515665,6410.10996249592,0.0,4287.720806615284,0.0034003890992698,1.0,57.74567666008771
14799,경기도 시흥시 대야동 483-2,37.444684,126.7835512,5920.99844797035,1204.0,1326.3496105830898,0.0031827870390215,1.4,59.31588413157895
6731,경기도 남양주시 호평동 686-1,37.65986063,127.2434474,8675.06706436109,424.0,5628.370924257618,0.0061006827137088,1.0,57.514073539473685
2449,경기도 광명시 하안동 24번지,37.46890675,126.8793732,1651.99905595043,884.0,10818.505813255771,0.0045613086860448,1.0,61.21153326973684
19958,경기도 안양시 만안구 석수2동 284-7,37.41333645,126.9064698,2389.8877567501,1187.0,6695.616577682212,0.0053760829666239,1.0,61.70252261842106
15707,경기도 안산시 단원구 선부동 1007-5,37.34100218,126.8022137,5998.79471682354,945.0,3994.306727951044,0.0040578049015738,2.0,61.19424003070176
27827,경기도 의정부시 의정부동 219-11,37.74579511,127.0484891,2518.7766032462,2207.0,9168.400234197085,0.0059610652881558,2.0,59.77169169517544
26713,경기도 의왕시 오전동 362-9,37.35193923,126.9766947,1081.71475332834,1298.0,1867.2124239215789,0.0056686578128464,0.6,57.6622461008772
26311,경기도 용인시 처인구 이동읍 송전리 605-2 체리노래방,37.137947,127.197201,3664.79218928874,686.0,607.3771810044517,0.002835473349596,1.0,59.90678362061403
19846,경기도 안양시 만안구 박달2동 144-3,37.40049324,126.9013626,1022.9317699143,2380.0,8374.953485504173,0.0053292434052934,1.0,61.10215570614035
34620,경기도 화성시 남양읍 남양리 2319-1,37.19899531,126.8254096,773.4280594104748,349.0,885.2650600690793,0.0027177332057467,1.0,58.24121967763157
6428,경기도 남양주시 진접읍 금곡리 1127-109,37.71693329,127.2016903,5706.47804046239,205.0,514.8751677618918,0.0054947128176634,1.0,57.62906762061404
25812,경기도 용인시 수지구 풍덕천동 976 민물장어직판장 앞,37.323961,127.102467,12058.4024382624,1155.0,1180.6140134399775,0.0029307528646015,1.0,56.08156468274122
32030,경기도 평택시 서정동 790,37.06995556,127.0589815,7815.07653763089,401.0,4333.228256290217,0.0039216822228744,1.0,58.11881520614035
19112,경기도 안성시 창전동 82-2,37.00411038,127.2724302,1978.3894640262,900.0,552.490928147931,0.0037147110458906,1.0,61.09171548245614
1479,경기도 고양시 일산서구 주엽동 123,37.66843476,126.7564856,4805.36806218087,241.0,12788.252813431602,0.0067376967091595,1.0,60.43991329166666
20300,경기도 안양시 만안구 안양6동 456-8,37.39281848,126.9259837,2742.26796084677,870.0,7910.908492171546,0.0041580656334176,1.0,58.0431947741228
13921,경기도 수원시 팔달구 매교동 113-35,37.26576519,127.0140316,9610.81873936586,1479.0,6128.508333674557,0.0029179612776233,1.0,56.810849394736834
9254,경기도 부천시 중동 1218,37.4939958,126.7779682,1466.3159995833,875.0,9132.814162765677,0.0036249693589316,2.0,57.06166524342105
20349,경기도 안양시 만안구 안양7동 196-30,37.38931391,126.9357143,1958.41016612557,1175.0,10600.070625980852,0.0031690924215609,2.0,56.95109523903509
27014,경기도 의정부시 가능동 1-5,37.74760898,127.0514294,2408.5245292942,26.0,6786.672459314271,0.002263912595506,2.0,59.96448756798246
27812,경기도 의정부시 의정부동 205-16,37.73984195,127.0473336,2372.44656550003,1212.0,8368.267227082491,0.0016889566918246,1.4,56.95943942324563
38016,경기도 화성시 진안동 515-12,37.21107705,127.0371405,4836.07779834987,199.0,7801.886132596954,0.0035658100666928,2.0,58.84461803508772
9290,경기도 부천시 중동 775-27,37.49232851,126.7692061,1042.96697975889,1479.0,7782.199554845861,0.0044843838874228,1.0,56.512215348684215
10528,경기도 성남시 야탑1동 327-1(야탑중학교 건너편),37.4120006,127.1302087,11702.3061862168,913.8,8005.3858334910865,0.0030100806056005,1.0,57.66560808114035
10536,경기도 성남시 야탑3동 212번지 중탑초등학교 정문,37.4139167,127.1395515,10849.0050559906,383.0,4632.583105904342,0.0029243789363935,2.0,56.975136293859656
15719,경기도 안산시 단원구 선부동 1024-6,37.34311152,126.8056413,5900.13833230292,621.0,3358.452686589657,0.0049658997534052,2.0,58.32528573245614
2358,경기도 광명시 철산동 418번지,37.47415326,126.8685776,773.4280594104748,575.8,9760.715464656028,0.0062482652341701,2.0,57.23231343859649
26448,경기도 의왕시 고천동 261-1번지,37.34720679,126.9758942,773.4280594104748,344.4,1652.018851581846,0.0048377360413908,0.6,58.35215223903509
27955,경기도 의정부시 의정부동 564-8,37.73316854,127.0417339,2804.92206608599,159.0,10975.23418543529,0.0026687293867468,0.4,56.08156468274122
8029,경기도 부천시 상동 620-5,37.48913648,126.7446457,2103.61227403652,383.0,6856.445923759349,0.0055758137121084,1.0,59.405776028508775
16829,경기도 안산시 상록구 부곡동 699-6,37.32225113,126.8611827,4998.60453344313,328.0,4265.937556236098,0.0034665041206884,1.0,56.08156468274122
8021,경기도 부천시 상동 609-1,37.49147484,126.7438417,2018.83482277754,448.0,8862.106909190541,0.0065150501104146,1.0,56.60756924122806
16701,경기도 안산시 상록구 본오동 889-3번지,37.2934479,126.8604222,2384.00581158388,699.0,9036.80635795292,0.0025999348765697,1.0,57.74223107894737
899,경기도 고양시 덕양구 행신동 855,37.61421975,126.8368757,4905.23548969233,296.0,4917.607997226523,0.005893476379482,2.0,59.74718535526316
19259,경기도 안양시 동안구 관양2동 1488-3,37.40280773,126.9749101,1846.96213289767,1188.6,6957.70282255143,0.0030799607070399,2.0,57.50926047149123
16484,경기도 안산시 상록구 건건동 940-47,37.30128522,126.9008185,5964.70747405293,2214.0,2312.280273270749,0.0024857432896153,2.0,59.5157534122807
15244,경기도 시흥시 정왕본동  1807-4,37.3498065,126.7428022,5577.71847342325,807.8,6440.159744670733,0.0045870519649146,0.4,60.52951473464911
20522,경기도 안양시 만안구 안양동 674-140,37.39870447,126.9222896,2717.87079448412,487.8,8751.28719599983,0.0016475787814008,1.0,60.41936423903509
19384,경기도 안양시 동안구 달안동 1111,37.39250592,126.9512805,773.4280594104748,1292.4,12650.842044276947,0.0037631242080421,1.0,59.17940978289474
28182,경기도 의정부시 호원동 462-13,37.70744601,127.0490849,3720.27497491635,1580.0,10111.73559067117,0.0026909811591188,1.0,58.76548389473684
27943,경기도 의정부시 의정부동 535-9,37.73319922,127.0357529,3330.83096818269,570.0,12026.601395418107,0.0038606646802609,2.0,57.43184133114035
33209,경기도 평택시 합정동 965-7,36.98950278,127.1125679,773.4280594104748,380.0,3812.130929057887,0.0025727358446679,1.0,60.63558920394736
19500,경기도 안양시 동안구 비산3동 241,37.40283869,126.9480641,1219.90364008357,1031.8,11741.22374301741,0.0020820165689371,1.0,60.39021042105263
20489,경기도 안양시 만안구 안양동 349-33,37.37949248,126.9364543,1998.76571993523,808.0,10367.44660204142,0.0051696652510368,1.0,58.65572303508772
27353,경기도 의정부시 녹양동 146-34,37.75731609,127.0316601,4452.89939983182,99.0,3087.9653748797587,0.0035910054326321,1.0,57.12038400657895
8356,경기도 부천시 심곡동 293-11,37.49274038,126.7716794,1127.16293271485,338.0,6350.012709139948,0.0047614156798717,1.0,59.65911441008771
3930,경기도 군포시 당동 773-4,37.35165453,126.9433355,1303.65702669907,688.4,8964.535738298113,0.002444755721533,1.0,58.13551560964913
20199,경기도 안양시 만안구 안양3동 873-186,37.40035929,126.9142099,2056.01106326672,1099.2,10125.83910662342,0.0043655844649433,1.0,60.02018853289474
7558,경기도 부천시 고강동 389-4,37.52653988,126.8214525,5867.24937379557,840.0,2090.8953746658462,0.0067552627025723,1.0,60.45607748903508
32282,경기도 평택시 신대동 593-6,36.99746321,127.0783405,2918.85770870579,438.0,9177.548192415738,0.0018377279981093,1.0,60.424472274122806
38809,경기도 화성시 향남읍 행정리 526-1,37.13156053,126.9165995,11054.5385245515,1475.0,147.90574346769506,0.0060023291982765,1.0,61.86194814372806
13375,경기도 수원시 장안구 정자동 38-32,37.29363224,127.0019353,6361.41007434771,1945.0,3427.315756253806,0.0045403813608567,1.0,56.99198273026316
31929,경기도 평택시 비전동 산 104-14,36.99810787,127.0967312,1576.85137020047,785.0,7025.685199555699,0.0040784971480925,2.0,61.45231239254386
17197,경기도 안산시 상록구 월피동 452 월피로&안산천동로4길 교차로(성포중학교 남측),37.33392451,126.851342,5980.91166914065,1416.0,5514.310422291236,0.005320860386743,2.0,59.81693567324561
17221,경기도 안산시 상록구 월피동 486-1 타이어할인매장 앞,37.33535879,126.8482592,6092.46076429277,1416.0,5456.908526735564,0.0035886324539797,2.0,59.70371472587719
27988,경기도 의정부시 의정부동 638,37.73360134,127.0375953,3166.53423271424,570.0,14048.702268963543,0.0037798487855405,0.6,57.83317636842105
20069,경기도 안양시 만안구 석수동 477-3,37.42699312,126.8990664,3583.84650109734,275.0,6207.151689371246,0.0035957677629702,1.0,57.705424449561406
5810,경기도 남양주시 별내동 1039-1,37.64507821,127.115317,3342.69562374562,1331.0,1518.1541446445633,0.0056766235486082,1.0,59.0350412763158
1994,경기도 광명시 광명동 258-19번지,37.47516259,126.8486191,1526.26029208451,547.0,7443.006117379543,0.0024772675444021,1.0,56.12241132236842
12268,경기도 수원시 영통구 매탄동 170-1,37.27393576,127.0395129,10027.5925914997,518.0,986.5616226595932,0.0073572012769745,1.0,56.85996587719298
19829,경기도 안양시 만안구 박달1동 75-4,37.40302248,126.9132287,2077.7725185618,1240.2,10824.783705018115,0.0034734968162516,0.8,57.45350567105263
19673,경기도 안양시 동안구 호계2동 170-8,37.37905426,126.943753,2062.3054081147,130.0,10660.330443305233,0.0016470318205267,1.2,57.53420254605263
7570,경기도 부천시 고강동 413-9,37.52810751,126.8244714,6185.05014109204,1143.0,1885.216711770624,0.0037743467232572,1.0,59.72207059868421
29714,경기도 이천시 창전동 416-41번지,37.2837878,127.4404735,6045.52291447773,2319.0,896.3120627198385,0.0057850558286403,1.0,58.345867989035085
8023,경기도 부천시 상동 616-1,37.48939586,126.7429238,2210.44651403082,332.0,6856.445923759349,0.0041082997677913,1.0,58.09001513377193
14935,경기도 시흥시 신천동 705-32,37.4427996,126.7828561,5707.71724221657,585.0,1263.3539817554624,0.0061039239742769,0.6,60.82377918421052
27372,경기도 의정부시 녹양동 329-14,37.75743956,127.0390185,3941.81226133892,1.0,8104.715941423362,0.0029820616615542,1.0,57.52701458991229
8319,경기도 부천시 심곡동 125-1,37.48479844,126.7892659,2867.34399592187,1249.0,7689.599459377004,0.0025566505152741,2.0,60.761503407894736
6861,경기도 남양주시 화도읍 마석우리 344번지,37.65825262,127.304163,7293.01334561092,1000.0,2875.3491895703824,0.0036931673581455,1.0,58.46876761842105
24483,경기도 오산시 오산동 63-15,37.155548,127.071733,1835.85173442263,120.0,5820.262676845913,0.0017332639700457,2.0,58.761887337719294
27865,경기도 의정부시 의정부동 335-35,37.7438666,127.0369575,3373.20067093555,466.0,5340.043010278945,0.0032783651678916,1.0,56.857911745614025
2384,경기도 광명시 철산동 480번지,37.47464685,126.8664925,773.4280594104748,1496.8,9760.715464656028,0.0071063448776676,2.0,58.66989832675439
24791,경기도 용인시 기흥구 농서동 435 서천동로 농서근린공원 입구(빌라단지),37.232707,127.070797,7215.31428773205,38.0,4881.89663501127,0.0048916581523461,1.0,58.617350339912285
33967,경기도 하남시 덕풍동 515-3,37.53353848,127.2027865,1078.802018549,639.0,187.3711060568864,0.0043679395882303,2.0,57.91079924561403
16919,경기도 안산시 상록구 사동 1296-5,37.29649072,126.8497907,1988.77391051827,13.0,4145.349786833787,0.0023502744778368,1.0,58.45820339035088
2267,경기도 광명시 일직동 171-1번지,37.4186128,126.8859506,2650.3599642898,623.0,6851.170902564653,0.0013463803785246,2.0,58.55030694956141
26526,경기도 의왕시 내손동 676-10번지,37.38484069,126.9831926,2557.72127151074,812.0,8067.283555178737,0.0021393159005739,1.0,59.89363389035087
10866,경기도 성남시 중원구 하대원동 101-9번지 제비표페인트 옆,37.4290192,127.131017,11361.8368537938,770.6,10893.661049283864,0.0015777558364991,2.0,58.38262604824561
2313,경기도 광명시 철산1동 629-1 철산어린이공원(사성),37.48864913,126.8645171,1105.99072604788,212.0,10481.09006501755,0.0047513013349997,1.0,57.18344711403508
32883,경기도 평택시 지산동 1111,37.08048742,127.0620932,6636.98665502326,937.0,3551.322228819844,0.0027554560353955,1.0,60.21123297807017
24423,경기도 오산시 수청동 산32-11,37.163418,127.068447,1542.86075633048,12.0,2963.5935131446104,0.0057444174213752,1.0,60.30608881140351
14557,경기도 수원시 팔달구 화서동 460-1,37.28381151,126.9881809,6948.47876638376,1239.2,8653.408002873432,0.0030354021527431,0.4,57.27894994078948
650,경기도 고양시 덕양구 성사동 502-5,37.65799099,126.8383422,773.4280594104748,297.4,10438.853741424688,0.0020886647837663,0.4,58.93877207236842
3931,경기도 군포시 당동 774-8,37.35270375,126.9441068,1249.2620709391,688.4,11257.180714091488,0.001845967439021,1.4,59.08118724122807
3590,경기도 구리시 인창동 208-38,37.60367535,127.1434526,2665.92373287641,220.0,4110.690174737337,0.0029531955443134,2.0,59.54357434429824
20483,경기도 안양시 만안구 안양동 218,37.38408219,126.9368153,2114.58559231901,817.0,11166.320605269031,0.0019590142027794,1.0,59.155731822368416
19206,경기도 안양시 동안구 관양1동 1722-1,37.40613476,126.9731016,1936.8286962642,864.2,6898.617248000594,0.0022307067272157,1.0,59.24361450438596
25807,"경기도 용인시 수지구 풍덕천동 797번지 문정중학교 공원 옆, 727?파크빌 사거리(문정중 옆)",37.323794,127.099652,11817.2185604521,787.0,1098.339246946293,0.0071701841088575,1.0,59.33066515350877
15213,경기도 시흥시 정왕동 1427-15,37.3382835,126.7515874,6350.5608657298,466.0,853.7137167363868,0.0081533805795614,1.0,60.6934628245614
15298,경기도 시흥시 정왕본동 1824-1,37.3480818,126.7452233,5623.84574635526,451.0,13414.703835266646,0.0035695085297351,1.0,59.83348316666667
15506,경기도 안산시 단원구 고잔동 658-5,37.32792111,126.8192131,5479.04882591105,104.0,4678.822767178097,0.0031258002786562,1.0,57.98506573026316
7975,경기도 부천시 상동 547-1,37.50441356,126.7487685,1377.56987249896,663.0,9310.197663771422,0.0029662958873026,1.4,60.908216822368416
28062,경기도 의정부시 장암동 219-3,37.69841749,127.0545618,4368.07622378392,1594.0,4612.056334860091,0.0009331417120764,2.0,61.304492394736855
10878,경기도 성남시 중원구 하대원동 138-10번지 대하초등학교 후문,37.4309691,127.1522584,9473.27047289966,320.6,2555.336766929629,0.0069413802899353,0.4,57.55210764035087
648,경기도 고양시 덕양구 성사동 496-5,37.65915681,126.8409236,864.228747723141,207.0,10155.44631618234,0.0034173071999272,1.0,57.61358845614036
34038,경기도 하남시 망월동 109-8,37.5619533,127.1932306,2100.19922011696,986.0,437.8492619054662,0.002627528164235,2.0,56.85541242324562
8841,경기도 부천시 옥길동 777-2,37.46243241,126.8130653,4391.78194539866,1038.8,7145.254386581424,0.0032259044550204,2.0,57.08751070175438
11049,경기도 수원시 권선구 곡반정동 555,37.23898114,127.0307175,7972.70707830175,2187.0,1270.947449115618,0.0019742980757894,2.0,58.01366249561404
26398,경기도 용인시 처인구 포곡읍 둔전리 431(107) 진주자원 옆,37.267651,127.22671,773.4280594104748,158.0,281.8473274441309,0.0053456787479291,1.0,56.69395505921052
8983,경기도 부천시 원종동 277-12,37.52423709,126.8051996,4516.03884727671,1570.8,2443.2311687637166,0.0025303262760927,2.0,56.34687817324562
15014,경기도 시흥시 은행동  323-37,37.430159,126.7929938,4489.65115190149,2157.0,990.1804446630764,0.0027739308408868,2.0,58.40184189254386
16702,경기도 안산시 상록구 본오동 889-5 강남빌딩,37.29343133,126.8606931,2402.56463193495,2240.0,9107.733085927386,0.0026885796905192,2.0,57.6355938618421
16356,경기도 안산시 단원구 이마트 트레이더스(신길동1702),37.33129075,126.7838403,6699.94260976734,1884.0,12016.167828373924,0.002051211412804,0.8,58.85177472149123
9163,경기도 부천시 중동 1082,37.50497143,126.7804647,1567.60732811162,151.0,7510.609752164816,0.0075954065400988,1.0,60.00263417543859
7653,경기도 부천시 괴안동 238-4,37.47388053,126.8039809,4640.40536757124,17.0,4673.624239987326,0.0058133001431632,0.2,60.78854195175439
773,경기도 고양시 덕양구 주교동 615-6,37.65690658,126.8360328,773.4280594104748,659.0,9559.308030961538,0.0019769093844977,0.4,59.89095597587719
17042,경기도 안산시 상록구 사동 1549,37.30435488,126.844002,2636.56571841428,812.0,6021.394481029386,0.0042767211887232,1.0,58.94220604824561
15870,경기도 안산시 단원구 선부동 963,37.33372963,126.8028153,6650.08832942442,49.0,5375.38477306007,0.0059912088330676,2.0,59.41318426973684
13340,경기도 수원시 장안구 정자동 27-27,37.29561669,127.0001283,6092.32527631059,1945.0,3294.332622020905,0.0044614807224197,1.0,56.093035392543854
24394,경기도 오산시 수청동 557번지,37.1719859,127.0588254,773.4280594104748,770.0,5060.706038694694,0.0030007588366443,1.0,59.94584059649122
13215,경기도 수원시 장안구 영화동 443-8,37.28595119,127.0081116,7370.60204340933,1583.0,3167.9899370960493,0.0020946296402591,1.0,58.85615312938596
3804,경기도 군포시 금정동 753,37.35994427,126.9446294,844.016843142872,1095.0,6013.722484221161,0.0041991006727398,2.0,60.31422420833333
16724,경기도 안산시 상록구 본오동 936-4,37.2896084,126.8588301,2039.60280208862,591.0,6570.966040393274,0.0031741321686353,2.0,58.40058282894736
27740,경기도 의정부시 용현동 5-1,37.73896107,127.0872784,1298.85359890868,254.0,3597.2770594059066,0.0032732583444038,0.4,59.80299968640351
16861,경기도 안산시 상록구 사동 1149,37.29997771,126.8381614,2105.66565305641,194.0,3629.499397800592,0.0019908740895255,1.0,57.015128782894735
9164,경기도 부천시 중동 1085-3,37.50395372,126.7805989,1547.95104395623,1047.0,9944.173556518675,0.0067113224710601,1.0,58.654864460526326
9292,경기도 부천시 중동 780-20,37.4902597,126.7710818,1324.23370829703,625.0,8298.239718291046,0.0061145572437429,1.0,58.72658692105264
15810,경기도 안산시 단원구 선부동 1106-12,37.34742744,126.81775,6024.74377757654,408.0,1047.034327144261,0.0056758652836584,2.0,58.35340635964912
8570,경기도 부천시 약대동 156-1,37.5115113,126.7724701,1442.28934167365,1813.0,9025.756686082372,0.0041001641191612,1.0,59.86854793201754
1633,경기도 과천시 과천동 539-3도 관문 지하차도2 (상행),37.44660829,126.9958868,912.160186578149,1975.0,6112.894482586356,0.0009046224387352,1.0,57.95387497368421
17250,경기도 안산시 상록구 월피동 522-12,37.33412778,126.842445,5904.55118359428,701.0,6187.3715763065575,0.0057317746579746,1.0,56.28897285307018
2603,경기도 광주시 곤지암읍 삼리 137-2도,37.35700867,127.3240846,10412.7438980725,2124.0,759.8251615537829,0.0033085135487076,1.0,58.147960212719305
1963,경기도 광명시 광명동 158-913번지 삼미빌라,37.47963666,126.8508649,1280.54819530897,1738.2,10194.333402643366,0.0026723503002878,1.0,58.49580648464912
12163,경기도 수원시 영통구 매탄동 1166-2,37.25704726,127.0404502,9795.1247650178,1072.0,6408.971620264259,0.0062711707419799,1.2,57.02967135964913
13199,경기도 수원시 장안구 영화동 412,37.29132199,127.0099269,6934.38625411258,1383.0,2655.846713850414,0.0022495949753086,1.2,56.08156468274122
16186,경기도 안산시 단원구 와동 879(화정6교↔화정7교사이 ),37.34377634,126.8182202,6381.0951085656,416.0,1182.7580208686995,0.0038017529471308,2.0,58.73625722149123
2446,경기도 광명시 하안동 13-3번지,37.46628858,126.87786,1769.07594753192,566.6,9929.195175350478,0.0033916248921323,2.0,60.03706215570176
9243,경기도 부천시 중동 1198,37.49289549,126.7705241,1051.3462870395,234.0,6733.488746778164,0.0035724628879605,1.0,60.1957959364035
17214,경기도 안산시 상록구 월피동 474-9,37.33599518,126.8525321,6226.79510663303,1416.0,4968.891889480478,0.0075709277876131,2.0,58.7366462127193
32166,경기도 평택시 세교동 560-1,37.00182378,127.0792885,3057.94221457225,320.0,6708.472312613531,0.0076545035596697,1.0,60.095502607456126
2438,경기도 광명시 하안3동 296-4 새싹 어린이공원,37.45990477,126.8784047,2206.9134971491,737.0,6851.608630805079,0.0059936883546993,1.0,60.852688324561406
27822,경기도 의정부시 의정부동 216-42,37.74809392,127.0487329,2633.85706113659,52.0,10831.181605937576,0.0050107522658751,1.0,59.18375208552632
16263,경기도 안산시 단원구 원곡동 802-4,37.32948061,126.7946146,6637.47275801023,314.0,13150.081866181052,0.005007088403209,1.0,61.86194814372806
38057,경기도 화성시 진안동 859-2,37.21606756,127.0399099,5311.07892614637,9.0,8670.681153414922,0.0077968735987152,1.2,57.62410658552631
18850,경기도 안성시 인지동 424-14,37.0043549,127.2678809,1574.77959871598,900.0,566.0609162333982,0.0030958147154543,1.0,57.63155974342105
10055,경기도 성남시 분당구 판교동 605-9번지 F7-1블럭 주택지역 내 주출입구 사거리,37.3900836,127.0931421,9766.0399428272,800.4,6044.743735102132,0.0028148594660641,1.0,60.493379276315785
8359,경기도 부천시 심곡동 296-22,37.49288882,126.7767684,1444.64600474675,449.0,7267.789311176772,0.0073068430159938,1.0,56.61949343421053
26626,경기도 의왕시 삼동 200-24번지,37.32246525,126.9536829,2787.38109523295,129.0,10720.56934357831,0.0023654235089624,2.0,56.08156468274122
4326,경기도 군포시 산본동 1146-14,37.36048446,126.9237684,1027.39404338335,541.0,9538.345685504026,0.0029254669319362,1.0,56.71822897149123
7965,경기도 부천시 상동 536-1,37.50728925,126.7545213,1093.05037942473,921.8,10452.426422073037,0.0026869969553054,2.0,57.956615105263154
16616,경기도 안산시 상록구 본오동 821,37.29479059,126.8687486,3087.12429563077,167.0,11576.467379224468,0.0041650221163453,0.2,56.43298825877193
1492,경기도 고양시 일산서구 주엽동 24,37.67301934,126.7601883,4204.25088305952,1104.0,8217.919241430449,0.0042354629138819,1.0,56.08156468274122
26586,경기도 의왕시 내손동 847-2,37.38627352,126.9783398,2101.1466856896,1061.0,6920.70133056831,0.00304743596926,2.0,58.1050969254386
29713,경기도 이천시 창전동 414-13,37.2840015,127.4393682,6084.84183915984,2319.0,883.2257592592381,0.0040521384439947,1.0,57.01376183333333
23449,경기도 여주시 점동면 청안리 127-20,37.2049269,127.6613856,7344.70883569328,342.0,192.5819479179468,0.0058388274277332,1.0,58.61430084210526
11077,경기도 수원시 권선구 곡반정동 613-1,37.23280218,127.0228532,7526.35729770972,960.0,1369.8179594832238,0.0054287471760659,2.0,59.258402833333335
6225,경기도 남양주시 와부읍 도곡리 산54-12,37.57970399,127.2282798,3445.20826144525,7.0,2902.490792695436,0.0039780286648401,1.0,57.6303471008772
10747,경기도 성남시 중원구 성남동 1486번지 중원도서관 앞 삼거리,37.4297442,127.1402736,10539.4962299774,1944.0,3876.686591417711,0.0029073016119495,2.0,57.44092889692982
24484,경기도 오산시 오산동 74-30번지,37.155875,127.0742425,1965.2013837271,342.0,5255.4659708983245,0.0022776719188261,1.0,57.58975973464912
35428,경기도 화성시 반월동 354-16,37.22885073,127.0676966,6739.22153955056,1392.0,4386.789530049088,0.0016287817915839,2.0,57.84857923903509
32862,경기도 평택시 죽백동 757-1,37.00410636,127.1154273,1913.1888812216,242.0,3009.312146106751,0.0031967819932512,2.0,60.042795048245615
19315,경기도 안양시 동안구 관양동   741-8,37.4017518,126.9696437,1391.97552545387,20.0,9648.140264098474,0.005650167904554,2.0,60.3870407872807
20536,경기도 안양시 만안구 안양동 707-274,37.39586532,126.9204811,2530.96355338546,528.2,9342.00308494326,0.0036880917879354,2.0,61.86194814372806
24648,경기도 오산시 청호동 42-7,37.132585,127.085451,2112.99159037527,52.0,3204.3495242063505,0.0038919074496945,1.0,60.51312079605263
8761,경기도 부천시 오정동 394-22,37.52895581,126.7818754,3536.40823436359,571.4,2182.7331040431245,0.0024250982289268,2.0,59.09926931578948
11057,경기도 수원시 권선구 곡반정동 577-1,37.23667525,127.0288716,7767.91141555873,1129.0,1298.5309622160996,0.0018721849593624,2.0,59.47235424122807
8207,경기도 부천시 송내동 304-6,37.48182553,126.7558489,2192.8114802374,1339.0,9548.437821554391,0.0024493671139926,1.0,58.354119223684215
9026,경기도 부천시 원종동 363-4,37.52126165,126.8081016,4552.40701579524,335.0,2984.4537089022383,0.0026136869155735,1.0,58.917690144736845
17192,경기도 안산시 상록구 월피동 449-4 초가마당 건너편,37.33221668,126.8522146,5810.69577846599,1085.0,5818.637333456305,0.0044968468354679,1.0,56.19112490350877
1960,경기도 광명시 광명동 158-86번지,37.47992608,126.8543347,979.025549315551,794.4,9859.436885033818,0.003318796149128,1.0,56.805785416666666
28096,경기도 의정부시 호원동 119-64,37.7070456,127.0457406,3932.85414541582,1580.0,13226.189791828969,0.0046936785450281,1.0,56.08156468274122
37241,경기도 화성시 영천동 805,37.20927477,127.0902216,5545.97657696612,69.0,238.7782433414656,0.0060308651331186,0.6,56.08156468274122
20061,경기도 안양시 만안구 석수동 320-1,37.41289548,126.9102137,2545.87199364292,1081.0,6326.374590984117,0.0024529284713724,1.0,56.79930215789474
18357,경기도 안성시 봉산동 49(장애인복지센터 앞),37.00639537,127.2772587,2425.92831935625,391.0,537.947485224234,0.0039381132188037,2.0,57.644874633771934
26788,경기도 의왕시 왕곡동 608-1,37.34407881,126.9768067,773.4280594104748,77.0,1622.3844981268553,0.0027895718423178,1.0,57.03896502631579
26358,경기도 용인시 처인구 처인구 포곡읍 전대리 177-12,37.282738,127.217346,1456.59293392966,372.0,312.5817595753805,0.0036502936422815,1.0,56.99431646271929
3834,경기도 군포시 금정동 82-15,37.36633395,126.9444016,968.093610651755,514.0,7019.502693458303,0.0034286756355314,1.0,56.94626272149123
12612,경기도 수원시 영통구 원천동 548-1,37.26834737,127.0590268,11002.5916692395,807.0,1363.344332830036,0.0074079536601966,1.0,56.829368815789465
38824,경기도 화성시 향남읍 행정리 566,37.13074879,126.9187263,11257.4444984517,1475.0,149.31144665301412,0.0053132654289012,2.0,59.89307157236842
16731,경기도 안산시 상록구 본오동 950,37.28634351,126.8629037,2243.09713627516,488.0,5729.488301921744,0.0050917383999469,2.0,57.676269234649126
6395,경기도 남양주시 진건읍 용정리 791-47번지,37.65730436,127.1811439,3726.71072529547,2207.0,307.767513678487,0.0044723189231034,0.8,60.20375972587719
20201,경기도 안양시 만안구 안양3동 873-322,37.39972873,126.9161129,2201.28358536854,960.8,9999.468831461243,0.0059189027195946,1.4,57.30159675219298
14946,경기도 시흥시 신천동 743-1,37.4410764,126.7816295,5509.70359642674,1116.0,4621.099517191926,0.0028614335552818,0.4,58.44452540570176
32876,경기도 평택시 지산동 1081,37.07927362,127.062519,6770.91916669701,937.0,3747.438171047855,0.0042943782793515,1.0,60.9164812741228
19821,경기도 안양시 만안구 박달1동 63-17,37.404734,126.913012,2147.2423095732,1240.2,10824.783705018115,0.0030278152555191,0.8,61.86194814372806
8529,경기도 부천시 심곡본동 701,37.47824479,126.7787192,2817.50759709743,2076.0,3836.849614013946,0.0019740470186078,1.0,59.70647269517544
32881,경기도 평택시 지산동 1099-1,37.07896808,127.0603381,6810.55588435774,177.0,4751.595894495335,0.0040549758414021,1.0,61.86194814372806
14797,경기도 시흥시 대야동 479-7,37.4467692,126.7856584,6169.26690505615,1294.0,1413.116784900481,0.0059251539971187,2.0,61.86194814372806
7948,경기도 부천시 상동 525-6,37.51025754,126.7507013,1564.57965253968,127.0,11852.763026696886,0.0065009636806845,1.0,60.07321126096492
14849,경기도 시흥시 매화동 250-1,37.415247,126.814159,4145.31583268859,1821.0,358.87399302118445,0.0052686758316925,2.0,61.00708807675439
8597,경기도 부천시 여월동 1-49,37.52151324,126.7972806,3774.21875064271,1719.0,1696.8050825563057,0.0025718272463595,2.0,56.52103567105264
27021,경기도 의정부시 가능동 13-45,37.74909354,127.0498455,2618.85505197042,26.0,8630.203563079513,0.0031837142856985,1.0,56.08156468274122
8060,경기도 부천시 소사동 44-6,37.4840596,126.7938198,3241.1103855275,1051.0,6119.662705866945,0.002071096577454,1.0,58.97420079166667
32401,경기도 평택시 신장동 691-53,37.07755029,127.050041,7066.28737081541,369.0,6845.006859484015,0.0030213442427271,1.0,61.594472782894734
20178,경기도 안양시 만안구 안양2동 863,37.40913868,126.9144298,2523.44055936715,489.0,6518.743702031517,0.0028259223381947,1.0,58.58770695175439
26613,경기도 의왕시 삼동 168-6번지,37.31890656,126.9512968,3235.21656170303,305.0,9374.027608761326,0.0029373297315536,0.4,58.96128037280702
5698,경기도 남양주시 다산동 4025-42,37.60966992,127.1554801,2744.42484831017,442.0,13261.156460020118,0.0045103412351055,1.0,59.84435729824561
2895,경기도 광주시 오포읍 양벌동 555-7대,37.37153816,127.2495634,7125.06199525212,1923.0,1643.074536929143,0.0063527893397006,1.0,59.37780626973684
26548,경기도 의왕시 내손동 713-59,37.38693801,126.9755458,1846.52773807813,1187.0,8182.303103351746,0.0061771483692564,1.0,58.91576033991228
20500,경기도 안양시 만안구 안양동 504-4,37.38710869,126.9307266,2454.05926862984,803.8,10986.271401389457,0.0013778296700106,0.8,57.810785947368416
3821,경기도 군포시 금정동 768-11,37.36283712,126.9459782,957.172865380649,492.0,7019.502693458303,0.0017687748161272,1.0,60.11069561622807
19842,경기도 안양시 만안구 박달2동 137-5,37.40209013,126.9052253,1405.50975711721,2019.0,10255.56606008242,0.0036984544632825,1.0,60.69299238157895
38041,경기도 화성시 진안동 797-1,37.20957455,127.0282853,4965.77916018311,589.0,8855.886519919846,0.0019497330112175,1.0,60.07290769736842
9299,경기도 부천시 중동 815,37.4876468,126.7656999,1449.07521095741,2314.0,10348.297779238075,0.0029429880489629,1.2,58.09167608333333
27838,경기도 의정부시 의정부동 225-3,37.74592433,127.0469333,2646.194620002,387.6,11911.362665706312,0.001969097573726,1.0,58.2638023377193
27089,경기도 의정부시 가능동 603-27,37.75039338,127.0349757,3809.67698227974,427.0,5126.979905691892,0.0030980612986403,1.0,58.31017965570176
32867,경기도 평택시 죽백동 822-4,37.00399783,127.1203879,2081.35821921695,698.0,2673.0023232789304,0.0064789382419977,1.0,59.98894748684211
23588,경기도 여주시 홍문동 296,37.2898894,127.6355565,2366.93069873028,1709.0,1752.2588701992815,0.0012693080464584,0.6,59.87405925
26607,경기도 의왕시 삼동 150-56,37.31712572,126.9513132,3409.2782541118,576.0,11822.070798770392,0.0050904861366778,0.4,59.05919000219298
